"Sno","SP_CODE","DISTRICT","MANDAL","VILLAGE","LON","LAT","09-04-25","10-04-25","11-04-25","12-04-25","13-04-25","14-04-25","15-04-25","16-04-25","17-04-25"
1,826001,"PRAKASAM","JANAKAVARAMPANGULU","Ramakuru",80.03999,15.892867,40.69,42.34,42.97,39.74,38.68,42.53,42.04,41.39,43.47
2,1315004,"KURNOOL","JUPADUBUNGALOW","Bollavaram",78.377097,15.885363,40.06,40.46,40.8,38.41,37.73,38.24,38.7,39.29,40.29
3,1330889,"KURNOOL","ATMAKURKURNOOL","Pinnapuram",78.654945,15.886427,37.37,38.54,39.38,37.11,35.71,37.4,37.52,38.8,38.63
4,820009,"PRAKASAM","MARTUR","LakkavaramAgraharam",80.061727,15.906479,40.84,42.26,43.09,39.19,39.3,42.67,42.28,42.53,43.82
5,1303014,"KURNOOL","MANTRALAYAM","Budur",77.380195,15.868793,38.2,40.05,39.44,38.18,38.3,37.43,38.94,39.41,40.9
6,805004,"PRAKASAM","DONAKONDA","PadamaraLakshmipuram",79.387233,15.888066,39.87,41.61,41.32,38.09,38.82,40,40.15,39.26,42.68
7,822002,"PRAKASAM","KARAMCHEDU","Karamchedu1",80.321381,15.887126,41.95,43.12,47.1,40.62,40.78,42.67,41.99,42.86,43.92
8,806008,"PRAKASAM","PEDAARAVEEDU","BoyadaGumpula",79.243357,15.885803,39.71,42.37,41.28,38.4,38.94,38.75,39.79,39.95,42.13
9,1301011,"KURNOOL","KOWTHALAM","Thippaladoddi",77.165642,15.871667,37.88,39.53,39.37,38.11,37.74,38.86,38.7,38.95,40.71
10,1307007,"KURNOOL","KURNOOL","G.Singavaram1",77.934328,15.87304,38.44,40.62,40.25,37.11,38.86,37.67,38.82,39.12,40.9
11,806007,"PRAKASAM","PEDAARAVEEDU","ThokaPalle",79.291841,15.882713,40.14,42.47,41.63,38.57,39.15,39.85,40.61,39.94,42.93
12,1301001,"KURNOOL","KOWTHALAM","Nadichagi",77.050836,15.858904,37.94,39.48,39.59,37.72,38.25,38.88,38.72,38.88,40.81
13,1303015,"KURNOOL","MANTRALAYAM","Chilakaladona",77.417441,15.866402,38.2,40.05,39.44,38.18,38.3,37.43,38.94,39.41,40.9
14,756005,"GUNTUR","KARLAPALEM","Perali",80.564029,15.892302,41.37,40.04,43.33,41.39,39.39,41.56,40.36,40.59,41.45
15,806005,"PRAKASAM","PEDAARAVEEDU","Cumbampadu",79.334104,15.878309,40.14,42.47,41.63,38.57,39.15,39.85,40.61,39.94,42.93
16,805003,"PRAKASAM","DONAKONDA","PolePalle",79.430973,15.87979,39.87,41.61,41.32,38.09,38.82,40,40.15,39.26,42.68
17,1314002,"KURNOOL","PAMULAPADU","Jutur",78.448881,15.870672,40.06,40.46,40.8,38.41,37.73,38.24,38.7,39.29,40.29
18,806004,"PRAKASAM","PEDAARAVEEDU","Ambapuram",79.335029,15.893988,40.14,42.47,41.63,38.57,39.15,39.85,40.61,39.94,42.93
19,1314003,"KURNOOL","PAMULAPADU","Chelimella",78.480902,15.863307,39.83,40.38,41.09,38.65,37.43,37.74,38.18,38.93,40.38
20,1302015,"KURNOOL","KOSIGI","Yandapalle",77.215956,15.869363,37.88,39.53,39.37,38.11,37.74,38.86,38.7,38.95,40.71
21,804019,"PRAKASAM","KURICHEDU","Dekanakonda",79.671579,15.883023,41.15,41.13,42.36,41.54,38.7,41.28,40.86,39.51,42.76
22,757017,"GUNTUR","BAPATLA","BapatlaWestRural",80.435648,15.887003,41.71,42.61,46.15,40.33,40.35,42.81,41.67,41.98,42.66
23,807016,"PRAKASAM","DORNALA","ChilakaCherlaGudem",79.004664,15.885889,37.55,37.89,37.54,34.8,35.53,35.48,36,36.11,38.99
24,1307001,"KURNOOL","KURNOOL","Sunkesula",77.834714,15.870627,38.82,40.57,39.99,37.43,39.6,37.85,38.9,39.15,41.04
25,1315003,"KURNOOL","JUPADUBUNGALOW","Tangadancha",78.353557,15.866583,40.06,40.46,40.8,38.41,37.73,38.24,38.7,39.29,40.29
26,820013,"PRAKASAM","MARTUR","BollaPalle",80.09087,15.883023,40.84,42.26,43.09,39.19,39.3,42.67,42.28,42.53,43.82
27,1301010,"KURNOOL","KOWTHALAM","Chudi",77.14523,15.85101,37.94,39.48,39.59,37.72,38.25,38.88,38.72,38.88,40.81
28,814004,"PRAKASAM","MUNDLAMURU","Purimetla",79.845342,15.879728,41.24,42.24,42.81,41.52,39.13,41.89,41.55,40,43.32
29,1305005,"KURNOOL","CBELAGAL","Kothakota1",77.797096,15.863397,38.82,40.57,39.99,37.43,39.6,37.85,38.9,39.15,41.04
30,1307008,"KURNOOL","KURNOOL","Nidzur",77.97209,15.86234,38.94,40.64,40.72,37.72,37.92,37.87,39.02,39.37,41.01
31,1302024,"KURNOOL","KOSIGI","Kosigi1",77.247141,15.839242,37.69,38.95,39.59,37.71,38.44,38.11,38.71,39.25,40.43
32,757019,"GUNTUR","BAPATLA","Adivi",80.486393,15.850878,41.12,41.66,44.97,40.02,40.2,42.74,41.19,41.43,42.13
33,814010,"PRAKASAM","MUNDLAMURU","Marella",79.886427,15.871709,41.51,42.74,42.93,39.11,39.13,42.41,42.1,40.6,43.68
34,814006,"PRAKASAM","MUNDLAMURU","Vemula1",79.76763,15.869017,41.24,42.24,42.81,41.52,39.13,41.89,41.55,40,43.32
35,1303013,"KURNOOL","MANTRALAYAM","Sunkeswari",77.346557,15.85722,38.09,39.84,39.44,38.23,37.76,38.47,38.77,39.29,40.75
36,1308007,"KURNOOL","NANDIKOTKUR","Allur1",78.201215,15.870373,39.24,40.3,40.7,38.26,38.05,37.73,38.7,39.32,40.26
37,807013,"PRAKASAM","DORNALA","Nallaguntla",78.925441,15.869878,36.46,37.02,37.16,34,34.42,35,35.29,36.02,38.17
38,804018,"PRAKASAM","KURICHEDU","Peddavaram",79.638402,15.869502,40.05,41.5,42.04,38,38.6,40.97,40.7,39.66,42.59
39,1311007,"KURNOOL","ATMAKURKURNOOL","Krishnapuram1",78.639276,15.877106,38.98,40,41.28,38.76,37.11,37.89,38.52,38.63,40.35
40,825001,"PRAKASAM","INKOLLU","Nagandla",80.146407,15.880184,40.84,42.26,43.09,39.19,39.3,42.67,42.28,42.53,43.82
41,890901,"PRAKASAM","PEDAARAVEEDU","Forest",79.272004,15.877625,40.14,42.47,41.63,38.57,39.15,39.85,40.61,39.94,42.93
42,744020,"GUNTUR","NUZENDLA","Thimmapuram",79.744318,15.87715,41.15,41.13,42.36,41.54,38.7,41.28,40.86,39.51,42.76
43,804009,"PRAKASAM","KURICHEDU","NamassivayaPuram",79.60792,15.881807,40.05,41.5,42.04,38,38.6,40.97,40.7,39.66,42.59
44,1302023,"KURNOOL","KOSIGI","Pendekal",77.26401,15.853554,38.09,39.84,39.44,38.23,37.76,38.47,38.77,39.29,40.75
45,1301012,"KURNOOL","KOWTHALAM","Karani1",77.177816,15.85531,37.88,39.53,39.37,38.11,37.74,38.86,38.7,38.95,40.71
46,1315007,"KURNOOL","JUPADUBUNGALOW","Bannur",78.398107,15.860723,40.06,40.46,40.8,38.41,37.73,38.24,38.7,39.29,40.29
47,1314004,"KURNOOL","PAMULAPADU","Iskala",78.51594,15.859633,39.83,40.38,41.09,38.65,37.43,37.74,38.18,38.93,40.38
48,807011,"PRAKASAM","DORNALA","Pedamanthanala",78.891419,15.881823,36.46,37.02,37.16,34,34.42,35,35.29,36.02,38.17
49,1304013,"KURNOOL","NANDAVARAM","Ponakaladinne",77.595749,15.843108,38.21,39.77,40.14,37.92,39.59,37.16,38.73,39.11,40.99
50,757020,"GUNTUR","BAPATLA","MaruproluvaripalemRural",80.469103,15.876046,41.12,41.66,44.97,40.02,40.2,42.74,41.19,41.43,42.13
51,1305009,"KURNOOL","CBELAGAL","C.Belagal",77.662399,15.831281,38.75,40,40.37,36.84,38.88,37.47,38.67,39.12,40.98
52,1302026,"KURNOOL","KOSIGI","Vandagallu",77.202795,15.844364,37.69,38.95,39.59,37.71,38.44,38.11,38.71,39.25,40.43
53,1302025,"KURNOOL","KOSIGI","Nelakosigi",77.227482,15.845152,37.69,38.95,39.59,37.71,38.44,38.11,38.71,39.25,40.43
54,1308009,"KURNOOL","NANDIKOTKUR","NandiKotkur1",78.257581,15.855879,39.73,40.59,41.01,38.56,38.38,38.23,39.05,39.39,40.68
55,1307006,"KURNOOL","KURNOOL","Basavapuram",77.91545,15.849253,38.81,40.41,40.43,35.77,37.43,37.47,38.81,38.9,40.89
56,1307014,"KURNOOL","KURNOOL","E.Thandrapadu",78.050918,15.857393,39.24,40.43,40.68,38.11,37.57,37.88,38.67,39.52,40.62
57,822006,"PRAKASAM","KARAMCHEDU","Swarna",80.284883,15.858035,41.95,43.12,47.1,40.62,40.78,42.67,41.99,42.86,43.92
58,826002,"PRAKASAM","JANAKAVARAMPANGULU","KondaManjulur",80.08506,15.866574,40.84,42.26,43.09,39.19,39.3,42.67,42.28,42.53,43.82
59,1301018,"KURNOOL","KOWTHALAM","Katriki",77.08266,15.84308,38.15,39.2,40.08,37.72,38.76,39.06,39.02,39.35,40.79
60,822004,"PRAKASAM","KARAMCHEDU","Daggubadu",80.214696,15.869375,41.58,42.96,44.6,40.55,41.04,42.94,42.26,43.23,44.62
61,806009,"PRAKASAM","PEDAARAVEEDU","Badveedu",79.202687,15.867748,39.71,42.37,41.28,38.4,38.94,38.75,39.79,39.95,42.13
62,816007,"PRAKASAM","ADDANKI","ChakrayaPalem",79.953379,15.870226,40.69,42.34,42.97,39.74,38.68,42.53,42.04,41.39,43.47
63,805006,"PRAKASAM","DONAKONDA","RudraSamudram",79.407898,15.854422,39.87,41.61,41.32,38.09,38.82,40,40.15,39.26,42.68
64,1307009,"KURNOOL","KURNOOL","Munagalapadu",77.99343,15.853307,38.94,40.64,40.72,37.72,37.92,37.87,39.02,39.37,41.01
65,816006,"PRAKASAM","ADDANKI","Kalavakuru",79.992281,15.869266,40.69,42.34,42.97,39.74,38.68,42.53,42.04,41.39,43.47
66,807010,"PRAKASAM","DORNALA","RollaPenta",78.851539,15.873549,36.46,37.02,37.16,34,34.42,35,35.29,36.02,38.17
67,1311008,"KURNOOL","ATMAKURKURNOOL","Siddepalle",78.621951,15.854083,38.98,40,41.28,38.76,37.11,37.89,38.52,38.63,40.35
68,807019,"PRAKASAM","DORNALA","KataKaniPalle",79.148577,15.862077,38.48,40.09,39.43,36.61,37.33,37.09,37.85,37.9,40.4
69,890902,"PRAKASAM","PEDAARAVEEDU","Forest1",79.29462,15.83525,40.34,42.01,41.72,38.52,38.61,39.89,40.5,39.68,42.87
70,805005,"PRAKASAM","DONAKONDA","Ramapuram1",79.371499,15.866269,39.87,41.61,41.32,38.09,38.82,40,40.15,39.26,42.68
71,1303016,"KURNOOL","MANTRALAYAM","HagaruruThimmapuram",77.383155,15.837778,37.64,39.52,39.48,37.23,38.52,38.23,38.49,39.04,40.5
72,1305006,"KURNOOL","CBELAGAL","Polakal",77.745425,15.831633,38.75,40,40.37,36.84,38.88,37.47,38.67,39.12,40.98
73,1301017,"KURNOOL","KOWTHALAM","Podalakunta",77.114373,15.844243,38.15,39.2,40.08,37.72,38.76,39.06,39.02,39.35,40.79
74,754888,"GUNTUR","NIZAMPATNAM","Dindi",80.744578,15.848695,39.95,39.57,44.01,42.31,40.19,40.38,39.13,40.29,43.01
75,1311010,"KURNOOL","ATMAKURKURNOOL","Karivena",78.551542,15.854459,38.98,40,41.28,38.76,37.11,37.89,38.52,38.63,40.35
76,807014,"PRAKASAM","DORNALA","NallaGuntlaGudem",78.892899,15.87313,36.46,37.02,37.16,34,34.42,35,35.29,36.02,38.17
77,1304017,"KURNOOL","NANDAVARAM","Halaharvi1",77.432051,15.82519,37.64,39.52,39.48,37.23,38.52,38.23,38.49,39.04,40.5
78,1311006,"KURNOOL","ATMAKURKURNOOL","Siddapuram",78.66431,15.855859,37.37,38.54,39.38,37.11,35.71,37.4,37.52,38.8,38.63
79,1301019,"KURNOOL","KOWTHALAM","Myaliganur",77.04405,15.838673,38.17,39.37,40.18,37.62,38.9,38.93,38.88,39.41,40.87
80,805007,"PRAKASAM","DONAKONDA","BadaPuram",79.46873,15.851481,39.54,41.67,41.51,38.56,38.52,40.19,40.04,39.39,42.54
81,1302020,"KURNOOL","KOSIGI","Pallipadu",77.311235,15.844938,37.59,39.17,39.46,37.36,38.3,37.65,38.51,39.07,40.36
82,806006,"PRAKASAM","PEDAARAVEEDU","ThangiralaPalle",79.306692,15.843406,40.34,42.01,41.72,38.52,38.61,39.89,40.5,39.68,42.87
83,1307015,"KURNOOL","KURNOOL","Gondiparla",78.071992,15.836684,38.79,40.23,40.15,37.34,37.89,37.75,38.65,39.11,40.65
84,1301013,"KURNOOL","KOWTHALAM","Mallanahatti",77.180339,15.831734,37.69,38.95,39.59,37.71,38.44,38.11,38.71,39.25,40.43
85,1302022,"KURNOOL","KOSIGI","Chintakunta",77.280503,15.840529,37.59,39.17,39.46,37.36,38.3,37.65,38.51,39.07,40.36
86,1307010,"KURNOOL","KURNOOL","Mamidalapadu",78.006022,15.842354,38.84,40.46,40.47,36.66,37.23,37.73,38.98,39.02,40.99
87,804014,"PRAKASAM","KURICHEDU","GangadonaKonda",79.526818,15.857683,39.54,41.67,41.51,38.56,38.52,40.19,40.04,39.39,42.54
88,804016,"PRAKASAM","KURICHEDU","Alavalapadu",79.574367,15.853753,40.05,41.5,42.04,38,38.6,40.97,40.7,39.66,42.59
89,1301014,"KURNOOL","KOWTHALAM","Chirtapalle",77.164225,15.827028,37.69,38.95,39.59,37.71,38.44,38.11,38.71,39.25,40.43
90,1306004,"KURNOOL","GUDURKURNOOL","Mallapuram",77.808506,15.834945,38.81,40.14,40.25,35.77,37.85,37.55,38.63,38.98,40.82
91,806010,"PRAKASAM","PEDAARAVEEDU","Pragallapadu",79.241946,15.853006,39.71,42.37,41.28,38.4,38.94,38.75,39.79,39.95,42.13
92,813009,"PRAKASAM","DARSI","Devavaram",79.697216,15.855178,41.15,41.13,42.36,41.54,38.7,41.28,40.86,39.51,42.76
93,814007,"PRAKASAM","MUNDLAMURU","Vemulabanda",79.792682,15.864356,41.24,42.24,42.81,41.52,39.13,41.89,41.55,40,43.32
94,1307002,"KURNOOL","KURNOOL","Remata",77.850308,15.831649,38.81,40.41,40.43,35.77,37.43,37.47,38.81,38.9,40.89
95,825004,"PRAKASAM","INKOLLU","Pavulur",80.168854,15.855691,41.58,42.96,44.6,40.55,41.04,42.94,42.26,43.23,44.62
96,823005,"PRAKASAM","CHIRALA","GavinivariPalem",80.434473,15.846975,40.79,39.12,43.58,42.72,39.27,41.05,40.28,40.5,42.32
97,1308008,"KURNOOL","NANDIKOTKUR","Vaddamanu",78.198218,15.844669,39.03,40.12,40.05,37.82,38.52,37.69,38.24,38.97,40.23
98,1303017,"KURNOOL","MANTRALAYAM","SowlaHalli",77.349427,15.837846,37.59,39.17,39.46,37.36,38.3,37.65,38.51,39.07,40.36
99,814008,"PRAKASAM","MUNDLAMURU","Umamaheswarapuram",79.81612,15.856924,41.24,42.24,42.81,41.52,39.13,41.89,41.55,40,43.32
100,823002,"PRAKASAM","CHIRALA","IpuruPalemRural",80.394723,15.838719,40.79,39.12,43.58,42.72,39.27,41.05,40.28,40.5,42.32
101,1305010,"KURNOOL","CBELAGAL","Kambadahal",77.625718,15.829126,38.21,39.77,40.14,37.92,39.59,37.16,38.73,39.11,40.99
102,804017,"PRAKASAM","KURICHEDU","Bodanampadu",79.613146,15.844473,40.12,41.62,42.33,39.18,38.71,41.22,40.85,39.96,42.82
103,826003,"PRAKASAM","JANAKAVARAMPANGULU","Bytamanjulur",80.053078,15.860049,40.84,42.26,43.09,39.19,39.3,42.67,42.28,42.53,43.82
104,1306003,"KURNOOL","GUDURKURNOOL","Munagala",77.788504,15.828891,38.81,40.14,40.25,35.77,37.85,37.55,38.63,38.98,40.82
105,890903,"PRAKASAM","PEDAARAVEEDU","Forest2",79.254261,15.840844,40.34,42.01,41.72,38.52,38.61,39.89,40.5,39.68,42.87
106,806011,"PRAKASAM","PEDAARAVEEDU","Gobburu",79.268763,15.83532,40.34,42.01,41.72,38.52,38.61,39.89,40.5,39.68,42.87
107,1307017,"KURNOOL","KURNOOL","Pudur",78.143665,15.829749,38.79,40.23,40.15,37.34,37.89,37.75,38.65,39.11,40.65
108,1315002,"KURNOOL","JUPADUBUNGALOW","Tartur",78.31535,15.838149,39.86,40.44,40.51,38.33,38.25,38.88,38.46,38.97,40.23
109,1301016,"KURNOOL","KOWTHALAM","Madire",77.114729,15.834535,38.15,39.2,40.08,37.72,38.76,39.06,39.02,39.35,40.79
110,1302021,"KURNOOL","KOSIGI","Kalavalagundu",77.305947,15.833925,37.59,39.17,39.46,37.36,38.3,37.65,38.51,39.07,40.36
111,1314007,"KURNOOL","PAMULAPADU","Pamulapadu1",78.498923,15.830922,40.07,40.75,41.17,39.22,37.44,37.97,38.45,39.2,40.67
112,1303018,"KURNOOL","MANTRALAYAM","Malapalle",77.339749,15.823725,37.59,39.17,39.46,37.36,38.3,37.65,38.51,39.07,40.36
113,804015,"PRAKASAM","KURICHEDU","WestGangavaram",79.552664,15.819947,40.12,41.62,42.33,39.18,38.71,41.22,40.85,39.96,42.82
114,1390901,"KURNOOL","KURNOOL","Roja",78.033758,15.84484,38.84,40.46,40.47,36.66,37.23,37.73,38.98,39.02,40.99
115,1307005,"KURNOOL","KURNOOL","Ulchala",77.915586,15.819836,38.81,40.41,40.43,35.77,37.43,37.47,38.81,38.9,40.89
116,822005,"PRAKASAM","KARAMCHEDU","Kesavarappadu",80.246146,15.858897,41.58,42.96,44.6,40.55,41.04,42.94,42.26,43.23,44.62
117,1301015,"KURNOOL","KOWTHALAM","Sulakeri",77.123858,15.823858,38.15,39.2,40.08,37.72,38.76,39.06,39.02,39.35,40.79
118,805016,"PRAKASAM","DONAKONDA","KotcherlaKota",79.349078,15.825575,40.34,42.01,41.72,38.52,38.61,39.89,40.5,39.68,42.87
119,814012,"PRAKASAM","MUNDLAMURU","KhambhamPaduEast",79.92878,15.851071,41.51,42.74,42.93,39.11,39.13,42.41,42.1,40.6,43.68
120,1315008,"KURNOOL","JUPADUBUNGALOW","Tarigopula",78.4254,15.83338,40.25,40.58,40.68,38.66,37.31,38.66,38.38,39.19,40.17
121,813008,"PRAKASAM","DARSI","PothaVaram",79.668832,15.849953,40.8,41.8,42.36,39.27,38.69,41.5,41.21,39.9,42.91
122,1321005,"KURNOOL","YEMMIGANUR","Tsallakudlur",77.54292,15.824405,37.85,39.69,39.73,37.85,39.25,38.05,38.71,39.09,40.8
123,814009,"PRAKASAM","MUNDLAMURU","Thammaluru",79.835954,15.840652,41.3,42.9,42.84,40.05,39.09,42.19,41.85,40.24,43.32
124,1322003,"KURNOOL","PEDDAKADUBUR","Basaladoddi",77.289518,15.817978,37.59,39.17,39.46,37.36,38.3,37.65,38.51,39.07,40.36
125,1301020,"KURNOOL","KOWTHALAM","Lingaladinne",77.082671,15.824303,38.15,39.2,40.08,37.72,38.76,39.06,39.02,39.35,40.79
126,1390902,"KURNOOL","KURNOOL","KurnoolRural",78.033357,15.832907,38.84,40.46,40.47,36.66,37.23,37.73,38.98,39.02,40.99
127,1314005,"KURNOOL","PAMULAPADU","Kambalapalle",78.501724,15.839774,40.07,40.75,41.17,39.22,37.44,37.97,38.45,39.2,40.67
128,1321006,"KURNOOL","YEMMIGANUR","Divamdinne",77.581681,15.826179,38.21,39.77,40.14,37.92,39.59,37.16,38.73,39.11,40.99
129,805009,"PRAKASAM","DONAKONDA","Yerrabalem1",79.51199,15.839241,39.67,41.8,41.91,38.13,38.73,40.46,40.08,39.58,42.57
130,890904,"PRAKASAM","CHIRALA","Perala",80.357931,15.843271,40.79,39.12,43.58,42.72,39.27,41.05,40.28,40.5,42.32
131,816010,"PRAKASAM","ADDANKI","Bommanampadu",80.015406,15.841339,40.98,42.44,43.12,40.92,39,42.93,42.08,41.14,43.66
132,826004,"PRAKASAM","JANAKAVARAMPANGULU","Muppavaram",80.04282,15.841643,40.98,42.44,43.12,40.92,39,42.93,42.08,41.14,43.66
133,826007,"PRAKASAM","JANAKAVARAMPANGULU","Budavada",80.134745,15.840845,41.36,43.16,44.22,39.7,40.26,42.83,42.22,42.07,44.06
134,814014,"PRAKASAM","MUNDLAMURU","Peddaravipadu",79.857509,15.828913,41.73,43.02,43.05,38.53,38.98,42.87,42.17,40.61,43.7
135,890905,"PRAKASAM","PEDAARAVEEDU","Forest3",79.210704,15.848387,39.29,41.68,41.04,38.03,38.12,38.58,39.37,39.6,41.73
136,816011,"PRAKASAM","ADDANKI","AddankiPT",79.996691,15.801834,40.98,42.44,43.12,40.92,39,42.93,42.08,41.14,43.66
137,1322007,"KURNOOL","PEDDAKADUBUR","Kambaladinne",77.363985,15.794919,37.64,39.52,39.48,37.23,38.52,38.23,38.49,39.04,40.5
138,1302028,"KURNOOL","KOSIGI","Gowdegallu",77.217194,15.819593,37.69,38.95,39.59,37.71,38.44,38.11,38.71,39.25,40.43
139,1311009,"KURNOOL","ATMAKURKURNOOL","Nallakalva",78.586003,15.83096,39.25,40.07,40.99,38.88,38.02,38.16,38.94,38.86,40.38
140,1390903,"KURNOOL","KURNOOL","KurnoolMCorp.",78.050191,15.828149,38.79,40.23,40.15,37.34,37.89,37.75,38.65,39.11,40.65
141,822007,"PRAKASAM","KARAMCHEDU","KodavalivariPalem",80.265477,15.826242,41.43,41.9,44.68,40.22,39.46,42.21,41.65,42.08,43.6
142,1301024,"KURNOOL","KOWTHALAM","Urukunda",77.166085,15.806813,37.69,38.95,39.59,37.71,38.44,38.11,38.71,39.25,40.43
143,1318003,"KURNOOL","KALLUR","Peddapadu",77.968116,15.817779,38.84,40.46,40.47,36.66,37.23,37.73,38.98,39.02,40.99
144,1301021,"KURNOOL","KOWTHALAM","Agasaladinne",77.08686,15.812913,38.15,39.2,40.08,37.72,38.76,39.06,39.02,39.35,40.79
145,825005,"PRAKASAM","INKOLLU","Inkollu1",80.196214,15.825137,41.71,43.68,46.72,39.5,40.74,42.79,42.08,42.56,44.8
146,1302027,"KURNOOL","KOSIGI","Zumaladinne",77.197697,15.814139,37.69,38.95,39.59,37.71,38.44,38.11,38.71,39.25,40.43
147,805008,"PRAKASAM","DONAKONDA","VeeraVenkataPuram",79.490466,15.845387,39.67,41.8,41.91,38.13,38.73,40.46,40.08,39.58,42.57
148,805017,"PRAKASAM","DONAKONDA","Siddayapalem",79.327674,15.829806,40.34,42.01,41.72,38.52,38.61,39.89,40.5,39.68,42.87
149,1303019,"KURNOOL","MANTRALAYAM","Paramandoddi",77.315947,15.817848,37.59,39.17,39.46,37.36,38.3,37.65,38.51,39.07,40.36
150,814016,"PRAKASAM","MUNDLAMURU","Chintalapudi1",79.787291,15.839199,41.3,42.9,42.84,40.05,39.09,42.19,41.85,40.24,43.32
151,826006,"PRAKASAM","JANAKAVARAMPANGULU","Kotapadu1",80.100088,15.84409,41.36,43.16,44.22,39.7,40.26,42.83,42.22,42.07,44.06
152,1307016,"KURNOOL","KURNOOL","Devamada",78.106326,15.829164,38.79,40.23,40.15,37.34,37.89,37.75,38.65,39.11,40.65
153,813007,"PRAKASAM","DARSI","ThanamChinthala",79.652996,15.829331,40.8,41.8,42.36,39.27,38.69,41.5,41.21,39.9,42.91
154,823004,"PRAKASAM","CHIRALA","ChiralaRural",80.326517,15.825549,41.43,41.9,44.68,40.22,39.46,42.21,41.65,42.08,43.6
155,1314006,"KURNOOL","PAMULAPADU","Bhanumukkala",78.540222,15.814239,40.07,40.75,41.17,39.22,37.44,37.97,38.45,39.2,40.67
156,1390904,"KURNOOL","KALLUR","KALLUR1",78.016752,15.810387,38.84,40.46,40.47,36.66,37.23,37.73,38.98,39.02,40.99
157,806013,"PRAKASAM","PEDAARAVEEDU","PedaAraveedu",79.211289,15.822061,39.29,41.68,41.04,38.03,38.12,38.58,39.37,39.6,41.73
158,814013,"PRAKASAM","MUNDLAMURU","NuzellaPalle",79.899771,15.834039,41.73,43.02,43.05,38.53,38.98,42.87,42.17,40.61,43.7
159,1315010,"KURNOOL","JUPADUBUNGALOW","Parumanchala1",78.388642,15.795062,40.25,40.58,40.68,38.66,37.31,38.66,38.38,39.19,40.17
160,816008,"PRAKASAM","ADDANKI","Gopalapuram1",79.956213,15.844588,40.98,42.44,43.12,40.92,39,42.93,42.08,41.14,43.66
161,1308010,"KURNOOL","NANDIKOTKUR","Bollavaram1",78.242523,15.829542,39.03,40.12,40.05,37.82,38.52,37.69,38.24,38.97,40.23
162,1315009,"KURNOOL","JUPADUBUNGALOW","Lingapuram",78.389204,15.824712,40.25,40.58,40.68,38.66,37.31,38.66,38.38,39.19,40.17
163,1321004,"KURNOOL","YEMMIGANUR","Soganur",77.513432,15.811429,37.85,39.69,39.73,37.85,39.25,38.05,38.71,39.09,40.8
164,1322001,"KURNOOL","PEDDAKADUBUR","Peekalabetta",77.241313,15.81206,37.69,38.95,39.59,37.71,38.44,38.11,38.71,39.25,40.43
165,806015,"PRAKASAM","PEDAARAVEEDU","Kalanuthala",79.123596,15.808957,38.02,40.08,39.49,36.68,36.89,37.42,38.05,38.02,40.35
166,1316005,"KURNOOL","MIDTHUR","Veepanagandla",78.292936,15.816213,39.86,40.44,40.51,38.33,38.25,38.88,38.46,38.97,40.23
167,1321007,"KURNOOL","YEMMIGANUR","Enigabala",77.603909,15.799426,38.21,39.77,40.14,37.92,39.59,37.16,38.73,39.11,40.99
168,1322006,"KURNOOL","PEDDAKADUBUR","Chinnatumbalam",77.316543,15.789939,37.59,39.17,39.46,37.36,38.3,37.65,38.51,39.07,40.36
169,826005,"PRAKASAM","JANAKAVARAMPANGULU","Kondamur",80.065015,15.829324,41.36,43.16,44.22,39.7,40.26,42.83,42.22,42.07,44.06
170,807012,"PRAKASAM","DORNALA","ChinaManthanala",78.856552,15.837251,37.06,37.53,37.58,35.03,34.62,35.07,35.27,36.24,38.58
171,1304019,"KURNOOL","NANDAVARAM","Mugathi",77.4744,15.800731,37.85,39.69,39.73,37.85,39.25,38.05,38.71,39.09,40.8
172,1322008,"KURNOOL","PEDDAKADUBUR","Jalvadi",77.38744,15.80225,37.64,39.52,39.48,37.23,38.52,38.23,38.49,39.04,40.5
173,1301023,"KURNOOL","KOWTHALAM","Bantakunta",77.129633,15.80481,38.15,39.2,40.08,37.72,38.76,39.06,39.02,39.35,40.79
174,1322004,"KURNOOL","PEDDAKADUBUR","Hulikanvi",77.270902,15.799537,37.59,39.17,39.46,37.36,38.3,37.65,38.51,39.07,40.36
175,1321008,"KURNOOL","YEMMIGANUR","Garladinne1",77.574281,15.812121,38.21,39.77,40.14,37.92,39.59,37.16,38.73,39.11,40.99
176,805014,"PRAKASAM","DONAKONDA","Bhumanapalle",79.417003,15.826267,40,41.79,41.48,38.69,38.59,40.13,40.1,39.37,42.63
177,1308012,"KURNOOL","NANDIKOTKUR","Brahmanakotkur1",78.183447,15.811172,39.03,40.12,40.05,37.82,38.52,37.69,38.24,38.97,40.23
178,805010,"PRAKASAM","DONAKONDA","Vabbapuram",79.503078,15.829578,39.67,41.8,41.91,38.13,38.73,40.46,40.08,39.58,42.57
179,814017,"PRAKASAM","MUNDLAMURU","KellamPalle",79.722609,15.82183,40.8,41.8,42.36,39.27,38.69,41.5,41.21,39.9,42.91
180,806016,"PRAKASAM","PEDAARAVEEDU","Devarajugattu",79.245874,15.800912,39.29,41.68,41.04,38.03,38.12,38.58,39.37,39.6,41.73
181,1322002,"KURNOOL","PEDDAKADUBUR","Gavigatlu",77.218631,15.797981,37.69,38.95,39.59,37.71,38.44,38.11,38.71,39.25,40.43
182,1303020,"KURNOOL","MANTRALAYAM","Singarajanahalli",77.341388,15.806321,37.59,39.17,39.46,37.36,38.3,37.65,38.51,39.07,40.36
183,1322009,"KURNOOL","PEDDAKADUBUR","Kambadahal1",77.410904,15.800809,37.64,39.52,39.48,37.23,38.52,38.23,38.49,39.04,40.5
184,805015,"PRAKASAM","DONAKONDA","MallamPeta",79.371786,15.815091,40,41.79,41.48,38.69,38.59,40.13,40.1,39.37,42.63
185,814011,"PRAKASAM","MUNDLAMURU","BhatlaPalle",79.931598,15.835424,41.73,43.02,43.05,38.53,38.98,42.87,42.17,40.61,43.7
186,1308011,"KURNOOL","NANDIKOTKUR","Damagatla",78.232955,15.81157,39.03,40.12,40.05,37.82,38.52,37.69,38.24,38.97,40.23
187,1304018,"KURNOOL","NANDAVARAM","Dharmapuram",77.456834,15.807937,37.85,39.69,39.73,37.85,39.25,38.05,38.71,39.09,40.8
188,1306001,"KURNOOL","GUDURKURNOOL","Julakallu",77.769425,15.807661,38.81,40.14,40.25,35.77,37.85,37.55,38.63,38.98,40.82
189,813002,"PRAKASAM","DARSI","AbbayaPalem",79.596889,15.828731,40.12,41.62,42.33,39.18,38.71,41.22,40.85,39.96,42.82
190,1301022,"KURNOOL","KOWTHALAM","Dommaladinne",77.089543,15.80178,38.15,39.2,40.08,37.72,38.76,39.06,39.02,39.35,40.79
191,1321010,"KURNOOL","YEMMIGANUR","K.Thimmapuram",77.540852,15.804372,37.85,39.69,39.73,37.85,39.25,38.05,38.71,39.09,40.8
192,813010,"PRAKASAM","DARSI","ThimmayaPalem",79.67915,15.822582,40.8,41.8,42.36,39.27,38.69,41.5,41.21,39.9,42.91
193,1305008,"KURNOOL","CBELAGAL","Burandoddi",77.683935,15.794377,38.75,40,40.37,36.84,38.88,37.47,38.67,39.12,40.98
194,809010,"PRAKASAM","ADDANKI","NarasimhaPuram",79.951586,15.832872,40.98,42.44,43.12,40.92,39,42.93,42.08,41.14,43.66
195,1306005,"KURNOOL","GUDURKURNOOL","RegadiKhanapuram",77.838469,15.804165,38.81,40.14,40.25,35.77,37.85,37.55,38.63,38.98,40.82
196,1314008,"KURNOOL","PAMULAPADU","Mittakandala",78.469083,15.801321,40.07,40.75,41.17,39.22,37.44,37.97,38.45,39.2,40.67
197,1304006,"KURNOOL","KURNOOL","Joharapuram",78.063482,15.803339,38.79,40.23,40.15,37.34,37.89,37.75,38.65,39.11,40.65
198,1322005,"KURNOOL","PEDDAKADUBUR","Bapaladoddi",77.243943,15.796965,37.69,38.95,39.59,37.71,38.44,38.11,38.71,39.25,40.43
199,814025,"PRAKASAM","MUNDLAMURU","Vempadu1",79.867283,15.808801,41.73,43.02,43.05,38.53,38.98,42.87,42.17,40.61,43.7
200,805013,"PRAKASAM","DONAKONDA","RagamakkaPalle",79.432998,15.812914,40,41.79,41.48,38.69,38.59,40.13,40.1,39.37,42.63
201,805012,"PRAKASAM","DONAKONDA","IndlaCheruvu",79.460912,15.810517,39.67,41.8,41.91,38.13,38.73,40.46,40.08,39.58,42.57
202,1316007,"KURNOOL","MIDTHUR","Thimmapuram1",78.349467,15.795234,39.86,40.44,40.51,38.33,38.25,38.88,38.46,38.97,40.23
203,846001,"PRAKASAM","CHINAGANJAM","Santharavuru",80.253739,15.806282,41.43,41.9,44.68,40.22,39.46,42.21,41.65,42.08,43.6
204,1307025,"KURNOOL","KURNOOL","Rudravaram1",78.09761,15.784768,38.79,40.23,40.15,37.34,37.89,37.75,38.65,39.11,40.65
205,814015,"PRAKASAM","MUNDLAMURU","NadimpallivariKhandrika",79.799176,15.82004,41.3,42.9,42.84,40.05,39.09,42.19,41.85,40.24,43.32
206,1301028,"KURNOOL","KOWTHALAM","Veerladinne",77.103301,15.794828,38.15,39.2,40.08,37.72,38.76,39.06,39.02,39.35,40.79
207,805011,"PRAKASAM","DONAKONDA","NarasimhanayuniPalem",79.487775,15.819606,39.67,41.8,41.91,38.13,38.73,40.46,40.08,39.58,42.57
208,806014,"PRAKASAM","PEDAARAVEEDU","Sunkesula1",79.17232,15.803051,39.29,41.68,41.04,38.03,38.12,38.58,39.37,39.6,41.73
209,1301025,"KURNOOL","KOWTHALAM","Kamavaram",77.191091,15.774858,37.69,38.95,39.59,37.71,38.44,38.11,38.71,39.25,40.43
210,823000,"PRAKASAM","CHIRALA","ChiralaM",80.351954,15.824397,40.79,39.12,43.58,42.72,39.27,41.05,40.28,40.5,42.32
211,826008,"PRAKASAM","JANAKAVARAMPANGULU","JanakavaramPanguluru",80.101715,15.814468,41.36,43.16,44.22,39.7,40.26,42.83,42.22,42.07,44.06
212,1320002,"KURNOOL","GONEGANDLA","Alwala",77.6217,15.772572,38.21,39.77,40.14,37.92,39.59,37.16,38.73,39.11,40.99
213,816012,"PRAKASAM","ADDANKI","RamayapalemU",79.939583,15.807951,41.73,43.02,43.05,38.53,38.98,42.87,42.17,40.61,43.7
214,805024,"PRAKASAM","DONAKONDA","Gudipadu1",79.522342,15.788161,39.67,41.8,41.91,38.13,38.73,40.46,40.08,39.58,42.57
215,1305007,"KURNOOL","CBELAGAL","Brahmanadoddi",77.736073,15.779216,38.75,40,40.37,36.84,38.88,37.47,38.67,39.12,40.98
216,813004,"PRAKASAM","DARSI","Chandaluru",79.582758,15.800584,40.12,41.62,42.33,39.18,38.71,41.22,40.85,39.96,42.82
217,1301027,"KURNOOL","KOWTHALAM","Kowthalam1",77.131038,15.767784,38.15,39.2,40.08,37.72,38.76,39.06,39.02,39.35,40.79
218,824005,"PRAKASAM","VETAPALEM","KothaPetaRural",80.370874,15.797395,40.79,39.12,43.58,42.72,39.27,41.05,40.28,40.5,42.32
219,1306002,"KURNOOL","GUDURKURNOOL","Ponnakallu",77.779622,15.793659,38.81,40.14,40.25,35.77,37.85,37.55,38.63,38.98,40.82
220,1321009,"KURNOOL","YEMMIGANUR","Pesaladinne",77.574315,15.795449,38.21,39.77,40.14,37.92,39.59,37.16,38.73,39.11,40.99
221,1306006,"KURNOOL","GUDURKURNOOL","Gudur1",77.799975,15.767978,38.81,40.14,40.25,35.77,37.85,37.55,38.63,38.98,40.82
222,814024,"PRAKASAM","MUNDLAMURU","Mundlamuru1",79.823965,15.802009,41.3,42.9,42.84,40.05,39.09,42.19,41.85,40.24,43.32
223,826014,"PRAKASAM","JANAKAVARAMPANGULU","Chandalur",80.140624,15.792521,41.36,43.16,44.22,39.7,40.26,42.83,42.22,42.07,44.06
224,1316006,"KURNOOL","MIDTHUR","Byrapuram",78.326767,15.797479,39.86,40.44,40.51,38.33,38.25,38.88,38.46,38.97,40.23
225,805019,"PRAKASAM","DONAKONDA","Manginapudi1",79.398832,15.797482,40,41.79,41.48,38.69,38.59,40.13,40.1,39.37,42.63
226,814022,"PRAKASAM","MUNDLAMURU","Chinnavullagallu",79.748225,15.799293,40.8,41.8,42.36,39.27,38.69,41.5,41.21,39.9,42.91
227,1307018,"KURNOOL","KURNOOL","Gargeyapuram",78.139848,15.779834,38.79,40.23,40.15,37.34,37.89,37.75,38.65,39.11,40.65
228,1301026,"KURNOOL","KOWTHALAM","Echalahal",77.166606,15.786892,37.69,38.95,39.59,37.71,38.44,38.11,38.71,39.25,40.43
229,1301029,"KURNOOL","KOWTHALAM","Bapuram",77.089358,15.783357,38.15,39.2,40.08,37.72,38.76,39.06,39.02,39.35,40.79
230,1318002,"KURNOOL","KALLUR","A.Gokulapadu",77.945722,15.793197,38.81,40.41,40.43,35.77,37.43,37.47,38.81,38.9,40.89
231,814021,"PRAKASAM","MUNDLAMURU","Pedavullagallu",79.769587,15.801995,41.3,42.9,42.84,40.05,39.09,42.19,41.85,40.24,43.32
232,805023,"PRAKASAM","DONAKONDA","PeddannaPalem",79.49914,15.808144,39.67,41.8,41.91,38.13,38.73,40.46,40.08,39.58,42.57
233,1318001,"KURNOOL","KALLUR","Parla",77.892751,15.776523,38.81,40.41,40.43,35.77,37.43,37.47,38.81,38.9,40.89
234,1321003,"KURNOOL","YEMMIGANUR","Kalugotla1",77.516217,15.777079,37.85,39.69,39.73,37.85,39.25,38.05,38.71,39.09,40.8
235,1316001,"KURNOOL","MIDTHUR","Nagalooty",78.227233,15.790576,39.03,40.12,40.05,37.82,38.52,37.69,38.24,38.97,40.23
236,825006,"PRAKASAM","INKOLLU","GangaVaram",80.163166,15.814639,41.71,43.68,46.72,39.5,40.74,42.79,42.08,42.56,44.8
237,813001,"PRAKASAM","DARSI","Bandellapaya",79.612195,15.794627,40.12,41.62,42.33,39.18,38.71,41.22,40.85,39.96,42.82
238,809004,"PRAKASAM","MARKAPUR","Idupur",79.299235,15.788855,40.34,42.01,41.72,38.52,38.61,39.89,40.5,39.68,42.87
239,1390906,"KURNOOL","YEMMIGANUR","Yemmiganur1",77.479936,15.770975,37.85,39.69,39.73,37.85,39.25,38.05,38.71,39.09,40.8
240,813006,"PRAKASAM","DARSI","VenkatachalamPalle",79.633918,15.810884,40.12,41.62,42.33,39.18,38.71,41.22,40.85,39.96,42.82
241,808001,"PRAKASAM","ARDHAVEEDU","Velagalapaya",78.955619,15.782028,37.31,38.6,38.41,35.72,35.62,36.12,36.75,36.57,39.6
242,1316004,"KURNOOL","MIDTHUR","Midthur1",78.274525,15.772631,39.86,40.44,40.51,38.33,38.25,38.88,38.46,38.97,40.23
243,826010,"PRAKASAM","JANAKAVARAMPANGULU","Kasyapuram",80.030299,15.809055,40.98,42.44,43.12,40.92,39,42.93,42.08,41.14,43.66
244,814027,"PRAKASAM","MUNDLAMURU","Sankarapuram",79.902559,15.808434,41.73,43.02,43.05,38.53,38.98,42.87,42.17,40.61,43.7
245,1321011,"KURNOOL","YEMMIGANUR","Parlapalle",77.556217,15.774321,38.21,39.77,40.14,37.92,39.59,37.16,38.73,39.11,40.99
246,1301030,"KURNOOL","KOWTHALAM","Rowdur",77.071671,15.752732,38.15,39.2,40.08,37.72,38.76,39.06,39.02,39.35,40.79
247,890906,"PRAKASAM","MARKAPUR","Forest4",79.209887,15.767906,39.29,41.68,41.04,38.03,38.12,38.58,39.37,39.6,41.73
248,895901,"PRAKASAM","ADDANKI","AddankiNorthU",79.972131,15.812522,40.98,42.44,43.12,40.92,39,42.93,42.08,41.14,43.66
249,814026,"PRAKASAM","MUNDLAMURU","Polavaram1",79.875996,15.795892,41.73,43.02,43.05,38.53,38.98,42.87,42.17,40.61,43.7
250,814023,"PRAKASAM","MUNDLAMURU","Pasupugallu",79.790377,15.797182,41.3,42.9,42.84,40.05,39.09,42.19,41.85,40.24,43.32
251,826009,"PRAKASAM","JANAKAVARAMPANGULU","Reningavaram",80.049118,15.806442,40.98,42.44,43.12,40.92,39,42.93,42.08,41.14,43.66
252,1323014,"KURNOOL","ADONI","PeddaThumbalam",77.248511,15.764927,37.69,38.95,39.59,37.71,38.44,38.11,38.71,39.25,40.43
253,1322010,"KURNOOL","PEDDAKADUBUR","HissaraMurvari",77.415921,15.764127,37.64,39.52,39.48,37.23,38.52,38.23,38.49,39.04,40.5
254,1307021,"KURNOOL","KURNOOL","Pasupula1",78.073995,15.780922,38.79,40.23,40.15,37.34,37.89,37.75,38.65,39.11,40.65
255,1318005,"KURNOOL","KALLUR","Pandipadu",78.008292,15.790716,38.84,40.46,40.47,36.66,37.23,37.73,38.98,39.02,40.99
256,813011,"PRAKASAM","DARSI","Darsi1",79.676677,15.775791,40.8,41.8,42.36,39.27,38.69,41.5,41.21,39.9,42.91
257,1307019,"KURNOOL","KURNOOL","Diguvapadu",78.180621,15.782299,39.03,40.12,40.05,37.82,38.52,37.69,38.24,38.97,40.23
258,806012,"PRAKASAM","PEDAARAVEEDU","S.KothaPalle",79.241995,15.806835,39.29,41.68,41.04,38.03,38.12,38.58,39.37,39.6,41.73
259,1318006,"KURNOOL","KALLUR","Laxmipuram",77.985577,15.759232,38.84,40.46,40.47,36.66,37.23,37.73,38.98,39.02,40.99
260,1318007,"KURNOOL","KALLUR","Salkapuram",77.956505,15.777061,38.84,40.46,40.47,36.66,37.23,37.73,38.98,39.02,40.99
261,824001,"PRAKASAM","VETAPALEM","Vetapalem1",80.302711,15.788134,41.43,41.9,44.68,40.22,39.46,42.21,41.65,42.08,43.6
262,826011,"PRAKASAM","JANAKAVARAMPANGULU","Alavalapadu1",80.064837,15.78951,41.36,43.16,44.22,39.7,40.26,42.83,42.22,42.07,44.06
263,814018,"PRAKASAM","MUNDLAMURU","BasavaPuram",79.71287,15.801226,40.8,41.8,42.36,39.27,38.69,41.5,41.21,39.9,42.91
264,814019,"PRAKASAM","MUNDLAMURU","Brundavanam",79.687545,15.79045,40.8,41.8,42.36,39.27,38.69,41.5,41.21,39.9,42.91
265,1322013,"KURNOOL","PEDDAKADUBUR","Muchigeri",77.300824,15.767574,37.59,39.17,39.46,37.36,38.3,37.65,38.51,39.07,40.36
266,1314009,"KURNOOL","PAMULAPADU","Vempenta",78.518422,15.775165,40.07,40.75,41.17,39.22,37.44,37.97,38.45,39.2,40.67
267,816015,"PRAKASAM","ADDANKI","AddankiSouthU",79.971153,15.804479,40.98,42.44,43.12,40.92,39,42.93,42.08,41.14,43.66
268,825008,"PRAKASAM","INKOLLU","Bhimavaram1",80.211824,15.783483,41.71,43.68,46.72,39.5,40.74,42.79,42.08,42.56,44.8
269,1307023,"KURNOOL","KURNOOL","Dinnedevarapadu1",78.034817,15.76846,38.84,40.46,40.47,36.66,37.23,37.73,38.98,39.02,40.99
270,813005,"PRAKASAM","DARSI","Chalivendra",79.633136,15.791928,40.12,41.62,42.33,39.18,38.71,41.22,40.85,39.96,42.82
271,1320001,"KURNOOL","GONEGANDLA","PeddaMarriveedu",77.582034,15.75927,38.21,39.77,40.14,37.92,39.59,37.16,38.73,39.11,40.99
272,805022,"PRAKASAM","DONAKONDA","LakshmiNarayanaPuram",79.482861,15.787315,39.67,41.8,41.91,38.13,38.73,40.46,40.08,39.58,42.57
273,1315011,"KURNOOL","JUPADUBUNGALOW","Thudicherla",78.442258,15.774495,40.25,40.58,40.68,38.66,37.31,38.66,38.38,39.19,40.17
274,1316008,"KURNOOL","MIDTHUR","Cherakucherla",78.322279,15.76949,39.86,40.44,40.51,38.33,38.25,38.88,38.46,38.97,40.23
275,845017,"PRAKASAM","NAGULUPPALAPADU","Thimmasamudram",80.24576,15.780671,41.71,43.68,46.72,39.5,40.74,42.79,42.08,42.56,44.8
276,1322012,"KURNOOL","PEDDAKADUBUR","Kallukunta",77.327994,15.75885,37.59,39.17,39.46,37.36,38.3,37.65,38.51,39.07,40.36
277,825007,"PRAKASAM","INKOLLU","Koniki",80.181696,15.782431,41.71,43.68,46.72,39.5,40.74,42.79,42.08,42.56,44.8
278,890907,"PRAKASAM","GIDDALURU","Forest5",78.822277,15.399135,37.31,39.2,39.04,37.19,37.13,37.08,37.02,37.95,39.56
279,1306008,"KURNOOL","GUDURKURNOOL","Gudipadu2",77.848846,15.759482,38.81,40.14,40.25,35.77,37.85,37.55,38.63,38.98,40.82
280,1322011,"KURNOOL","PEDDAKADUBUR","PeddaKadubur1",77.356326,15.740405,37.28,39.14,39.43,36.6,38.38,38.44,38.15,38.35,40.04
281,826012,"PRAKASAM","JANAKAVARAMPANGULU","ThurpuThakkellaPadu",80.084493,15.784841,41.36,43.16,44.22,39.7,40.26,42.83,42.22,42.07,44.06
282,1320003,"KURNOOL","GONEGANDLA","PeddaNelatur",77.667972,15.751353,38.75,40,40.37,36.84,38.88,37.47,38.67,39.12,40.98
283,1381001,"KURNOOL","YEMMIGANUR","YemmiganurM",77.480039,15.768969,37.85,39.69,39.73,37.85,39.25,38.05,38.71,39.09,40.8
284,805018,"PRAKASAM","DONAKONDA","Ananthavaram1",79.36213,15.779457,40,41.79,41.48,38.69,38.59,40.13,40.1,39.37,42.63
285,814028,"PRAKASAM","MUNDLAMURU","Avisanavaripalem",79.904353,15.789974,41.73,43.02,43.05,38.53,38.98,42.87,42.17,40.61,43.7
286,809001,"PRAKASAM","MARKAPUR","JammanaPalle",79.199674,15.780173,39.29,41.68,41.04,38.03,38.12,38.58,39.37,39.6,41.73
287,1319001,"KURNOOL","KODUMUR","Pulakurthy",77.709792,15.742056,38.08,39.38,39.74,36.26,37.66,36.89,38.13,38.95,40.17
288,824004,"PRAKASAM","VETAPALEM","NayaniPalliRural",80.33372,15.769634,41.43,41.9,44.68,40.22,39.46,42.21,41.65,42.08,43.6
289,805020,"PRAKASAM","DONAKONDA","PochamakkaPalle",79.428151,15.785171,40,41.79,41.48,38.69,38.59,40.13,40.1,39.37,42.63
290,1316003,"KURNOOL","MIDTHUR","Kadumur",78.227641,15.763602,39.03,40.12,40.05,37.82,38.52,37.69,38.24,38.97,40.23
291,1321001,"KURNOOL","YEMMIGANUR","Sardarpuram",77.448179,15.764589,37.64,39.52,39.48,37.23,38.52,38.23,38.49,39.04,40.5
292,1307020,"KURNOOL","KURNOOL","Noothanapalle",78.096237,15.769526,38.79,40.23,40.15,37.34,37.89,37.75,38.65,39.11,40.65
293,809015,"PRAKASAM","MARKAPUR","Kolabhimunipadu",79.18284,15.763369,39.29,41.68,41.04,38.03,38.12,38.58,39.37,39.6,41.73
294,1307024,"KURNOOL","KURNOOL","B.Thandrapadu",78.059094,15.752542,38.79,40.23,40.15,37.34,37.89,37.75,38.65,39.11,40.65
295,826013,"PRAKASAM","JANAKAVARAMPANGULU","ThurpuKopperaPadu",80.103354,15.779232,41.36,43.16,44.22,39.7,40.26,42.83,42.22,42.07,44.06
296,814020,"PRAKASAM","MUNDLAMURU","Pulipadu",79.710334,15.784292,40.8,41.8,42.36,39.27,38.69,41.5,41.21,39.9,42.91
297,1322014,"KURNOOL","PEDDAKADUBUR","Nowlekal",77.280764,15.737529,37.29,38.98,39.33,36.8,38.38,37.36,38.28,38.17,40.04
298,805021,"PRAKASAM","DONAKONDA","PadamatiVenkataPuram",79.457374,15.776713,39.67,41.8,41.91,38.13,38.73,40.46,40.08,39.58,42.57
299,1323888,"KURNOOL","VELGODE","Forest6",78.705013,15.724935,36.99,37.82,37.46,36.08,35.6,36.35,36.72,37.05,37.98
300,1316002,"KURNOOL","MIDTHUR","Masapeta",78.187462,15.759089,39.03,40.12,40.05,37.82,38.52,37.69,38.24,38.97,40.23
301,809006,"PRAKASAM","MARKAPUR","GajjalaKonda",79.397307,15.757964,40,41.79,41.48,38.69,38.59,40.13,40.1,39.37,42.63
302,1314010,"KURNOOL","PAMULAPADU","Maddur1",78.486458,15.750469,40.07,40.75,41.17,39.22,37.44,37.97,38.45,39.2,40.67
303,816014,"PRAKASAM","ADDANKI","Kotikalapudi",79.94884,15.773547,41.73,43.02,43.05,38.53,38.98,42.87,42.17,40.61,43.7
304,827005,"PRAKASAM","KORISAPADU","Pichikalagudipadu",80.045974,15.775886,40.98,42.44,43.12,40.92,39,42.93,42.08,41.14,43.66
305,809002,"PRAKASAM","MARKAPUR","NikaramPalle",79.228507,15.772791,39.29,41.68,41.04,38.03,38.12,38.58,39.37,39.6,41.73
306,1301034,"KURNOOL","KOWTHALAM","Yerigiri",77.196664,15.741184,37.55,38.81,39.33,37.26,38.33,37.43,38.55,38.8,40.19
307,1322015,"KURNOOL","PEDDAKADUBUR","Myakadona",77.299608,15.737709,37.29,38.98,39.33,36.8,38.38,37.36,38.28,38.17,40.04
308,1321013,"KURNOOL","YEMMIGANUR","Kadimetla",77.530778,15.735522,37.65,39.09,39.49,37.01,38.71,37.01,38.21,38.6,40.14
309,1318008,"KURNOOL","KALLUR","K.Markapuram",77.928095,15.749917,38.81,40.19,40.55,36.45,37.15,37.62,38.84,39.11,40.87
310,816013,"PRAKASAM","ADDANKI","Kunkupadu1",79.92361,15.768614,41.73,43.02,43.05,38.53,38.98,42.87,42.17,40.61,43.7
311,813013,"PRAKASAM","DARSI","LankojanaPalle",79.651219,15.761419,40.8,41.8,42.36,39.27,38.69,41.5,41.21,39.9,42.91
312,815003,"PRAKASAM","THALLUR","Vithalapuram",79.864233,15.768723,41.73,43.02,43.05,38.53,38.98,42.87,42.17,40.61,43.7
313,813014,"PRAKASAM","DARSI","JammigumpalaK.S.Palem",79.572429,15.768662,40.12,41.62,42.33,39.18,38.71,41.22,40.85,39.96,42.82
314,809009,"PRAKASAM","MARKAPUR","MarkapurRural",79.283038,15.740407,39.93,41.66,41.44,38.53,37.95,39.85,40.17,39.21,42.58
315,815002,"PRAKASAM","THALLUR","Mannepalle",79.8368,15.757339,41.3,42.9,42.84,40.05,39.09,42.19,41.85,40.24,43.32
316,813025,"PRAKASAM","DARSI","CheruvuKommaPalem",79.775275,15.770083,41.3,42.9,42.84,40.05,39.09,42.19,41.85,40.24,43.32
317,1306010,"KURNOOL","GUDURKURNOOL","Kuruvanagalapuram",77.900714,15.751334,38.81,40.41,40.43,35.77,37.43,37.47,38.81,38.9,40.89
318,813027,"PRAKASAM","DARSI","PothaKamuru",79.765239,15.727802,40.94,42.71,42.59,38.32,38.99,42.16,41.62,40.29,43.05
319,809003,"PRAKASAM","MARKAPUR","PedaNagulavaram",79.256812,15.765567,40.34,42.01,41.72,38.52,38.61,39.89,40.5,39.68,42.87
320,815005,"PRAKASAM","THALLUR","Tallur",79.882653,15.741139,41.53,42.59,43.24,38.25,38.97,42.67,41.87,40.47,43.3
321,809005,"PRAKASAM","MARKAPUR","PedaYachavaram",79.329709,15.749087,39.93,41.66,41.44,38.53,37.95,39.85,40.17,39.21,42.58
322,808002,"PRAKASAM","ARDHAVEEDU","Gannepalle",78.99049,15.726612,37.58,39.16,38.85,36.87,35.71,36.75,37.46,37.13,39.93
323,813023,"PRAKASAM","DARSI","EastVeerayaPalem",79.727875,15.752946,40.8,41.8,42.36,39.27,38.69,41.5,41.21,39.9,42.91
324,815004,"PRAKASAM","THALLUR","Malkapuram",79.902345,15.758572,41.73,43.02,43.05,38.53,38.98,42.87,42.17,40.61,43.7
325,1321014,"KURNOOL","YEMMIGANUR","Gudikal",77.47364,15.740915,37.65,39.09,39.49,37.01,38.71,37.01,38.21,38.6,40.14
326,813024,"PRAKASAM","DARSI","MohiddinPuram",79.750506,15.760093,41.3,42.9,42.84,40.05,39.09,42.19,41.85,40.24,43.32
327,1301031,"KURNOOL","KOWTHALAM","Upparahal",77.103817,15.729906,38.25,39.05,39.7,37.56,38.37,39.05,38.92,39.25,40.54
328,1316010,"KURNOOL","MIDTHUR","Rollapadu",78.353398,15.741981,39.45,39.99,40.4,38.41,36.76,38.18,38.08,38.82,39.79
329,805028,"PRAKASAM","DONAKONDA","KalavalaPalle",79.435834,15.753614,40,41.79,41.48,38.69,38.59,40.13,40.1,39.37,42.63
330,846002,"PRAKASAM","CHINAGANJAM","Gonasapudi",80.221438,15.757652,41.71,43.68,46.72,39.5,40.74,42.79,42.08,42.56,44.8
331,1316009,"KURNOOL","MIDTHUR","Sunkesula2",78.313465,15.739169,39.43,39.99,40.14,38.01,37.7,38.51,38.25,38.61,39.72
332,1320004,"KURNOOL","GONEGANDLA","Kulumala",77.627679,15.737612,37.91,38.98,39.44,36.86,38.6,36.63,38.19,38.71,40.05
333,805026,"PRAKASAM","DONAKONDA","Vaddipadu",79.493462,15.753136,39.67,41.8,41.91,38.13,38.73,40.46,40.08,39.58,42.57
334,1317003,"KURNOOL","ORVAKAL","Kethavaram",78.160772,15.737921,38.72,39.82,39.81,37.79,38.19,37.4,38.1,38.47,40.05
335,824002,"PRAKASAM","VETAPALEM","PandillaPalle",80.276372,15.75858,41.43,41.9,44.68,40.22,39.46,42.21,41.65,42.08,43.6
336,1314011,"KURNOOL","PAMULAPADU","Vanala",78.443397,15.74056,39.45,39.99,40.4,38.41,36.76,38.18,38.08,38.82,39.79
337,1321012,"KURNOOL","YEMMIGANUR","Ralladoddi",77.565552,15.728735,37.91,38.98,39.44,36.86,38.6,36.63,38.19,38.71,40.05
338,1301033,"KURNOOL","KOWTHALAM","Badinehal",77.154571,15.715901,37.55,38.81,39.33,37.26,38.33,37.43,38.55,38.8,40.19
339,1323013,"KURNOOL","ADONI","Kuppagal",77.233874,15.731498,37.55,38.81,39.33,37.26,38.33,37.43,38.55,38.8,40.19
340,1316011,"KURNOOL","MIDTHUR","Alaganur",78.39306,15.734915,39.45,39.99,40.4,38.41,36.76,38.18,38.08,38.82,39.79
341,809016,"PRAKASAM","MARKAPUR","Akkacheruvu",79.1683,15.752623,39.29,41.68,41.04,38.03,38.12,38.58,39.37,39.6,41.73
342,813012,"PRAKASAM","DARSI","BalaPuram",79.629504,15.753052,40.12,41.62,42.33,39.18,38.71,41.22,40.85,39.96,42.82
343,815001,"PRAKASAM","THALLUR","Dosakayalapadu",79.812634,15.745222,40.94,42.71,42.59,38.32,38.99,42.16,41.62,40.29,43.05
344,1313004,"KURNOOL","VELGODE","Gunthakandala",78.517602,15.746697,39.55,40.47,40.86,39.12,36.99,37.84,38.74,39.19,40.82
345,825009,"PRAKASAM","INKOLLU","Duddukur",80.165322,15.747534,41.42,42.79,44.55,39.51,39.89,42.63,41.86,41.88,44.76
346,824003,"PRAKASAM","VETAPALEM","PullariPalem",80.306569,15.74292,40.2,39.43,43.97,42.27,39.2,41.24,40.43,40.72,42.64
347,1319004,"KURNOOL","KODUMUR","Pyalakurthy",77.826322,15.72533,38.51,39.87,40.32,36.05,36.97,37.46,38.57,39.18,40.54
348,827006,"PRAKASAM","KORISAPADU","Ravinuthala1",80.085124,15.746008,41.49,43.54,45.83,39.36,41.16,43.06,42.45,41.2,44.34
349,1317002,"KURNOOL","ORVAKAL","Puricherla",78.130952,15.724961,38.22,39.78,39.87,37.53,37.98,37.64,38.36,38.62,40.4
350,1318011,"KURNOOL","KALLUR","Dupadu1",78.009823,15.739539,38.54,40.14,40.38,37.12,37.51,37.85,38.88,38.79,40.83
351,1320005,"KURNOOL","GONEGANDLA","Gonegandla1",77.589488,15.714842,37.91,38.98,39.44,36.86,38.6,36.63,38.19,38.71,40.05
352,1322016,"KURNOOL","PEDDAKADUBUR","ChinnaKadubur",77.31755,15.725831,37.29,38.98,39.33,36.8,38.38,37.36,38.28,38.17,40.04
353,1321017,"KURNOOL","YEMMIGANUR","Banavasi1",77.404384,15.726148,37.28,39.14,39.43,36.6,38.38,38.44,38.15,38.35,40.04
354,816016,"PRAKASAM","ADDANKI","ManiKeswaram",79.977506,15.753442,40.98,42.44,43.12,40.92,39,42.93,42.08,41.14,43.66
355,845016,"PRAKASAM","NAGULUPPALAPADU","MaddiralaMuppalla",80.198035,15.749338,41.42,42.79,44.55,39.51,39.89,42.63,41.86,41.88,44.76
356,809014,"PRAKASAM","MARKAPUR","VemulaKota",79.232845,15.742898,39.31,41.64,40.86,38,37.24,38.63,39.06,39.32,41.52
357,1316015,"KURNOOL","MIDTHUR","Devanur",78.255562,15.723418,39.43,39.99,40.14,38.01,37.7,38.51,38.25,38.61,39.72
358,1321016,"KURNOOL","YEMMIGANUR","Kandanathi",77.454596,15.700254,37.65,39.09,39.49,37.01,38.71,37.01,38.21,38.6,40.14
359,1323043,"KURNOOL","ADONI","Basarakodu",77.257679,15.723198,37.29,38.98,39.33,36.8,38.38,37.36,38.28,38.17,40.04
360,826015,"PRAKASAM","JANAKAVARAMPANGULU","NuzendlaPalle",80.132868,15.755667,41.36,43.16,44.22,39.7,40.26,42.83,42.22,42.07,44.06
361,813016,"PRAKASAM","DARSI","Bandiveligandla",79.572773,15.739713,40.47,41.47,42.17,39.13,38.75,41.36,40.99,40.67,42.92
362,1306009,"KURNOOL","GUDURKURNOOL","Penchikalapadu",77.871325,15.729939,38.81,40.19,40.55,36.45,37.15,37.62,38.84,39.11,40.87
363,827004,"PRAKASAM","KORISAPADU","Korisapadu1",80.045241,15.748985,41.78,42.43,43.4,38.68,39.85,43.03,42.17,40.68,43.72
364,813017,"PRAKASAM","DARSI","YerrobanaPalle",79.608598,15.750365,40.12,41.62,42.33,39.18,38.71,41.22,40.85,39.96,42.82
365,1316016,"KURNOOL","MIDTHUR","Chowtakur1",78.224322,15.716936,38.72,39.82,39.81,37.79,38.19,37.4,38.1,38.47,40.05
366,846004,"PRAKASAM","CHINAGANJAM","Kadavakuduru1",80.249817,15.737458,41.42,42.79,44.55,39.51,39.89,42.63,41.86,41.88,44.76
367,1316017,"KURNOOL","MIDTHUR","Bannur1",78.204854,15.734088,38.72,39.82,39.81,37.79,38.19,37.4,38.1,38.47,40.05
368,1306007,"KURNOOL","GUDURKURNOOL","Chanugondla",77.770354,15.720825,38.51,39.87,40.32,36.05,36.97,37.46,38.57,39.18,40.54
369,1317001,"KURNOOL","ORVAKAL","Nannur1",78.080202,15.714572,38.22,39.78,39.87,37.53,37.98,37.64,38.36,38.62,40.4
370,813015,"PRAKASAM","DARSI","BukkaPuram",79.554009,15.749785,40.47,41.47,42.17,39.13,38.75,41.36,40.99,40.67,42.92
371,1306011,"KURNOOL","GUDURKURNOOL","Budidapadu",77.903269,15.727235,38.81,40.19,40.55,36.45,37.15,37.62,38.84,39.11,40.87
372,805027,"PRAKASAM","DONAKONDA","Sangapuram",79.468323,15.745562,39.96,41,41.82,38.93,38.38,40.55,40.21,39.97,42.57
373,805025,"PRAKASAM","DONAKONDA","Aravallipadu",79.521797,15.74067,39.96,41,41.82,38.93,38.38,40.55,40.21,39.97,42.57
374,1318009,"KURNOOL","KALLUR","Bastipadu",77.959574,15.714198,38.54,40.14,40.38,37.12,37.51,37.85,38.88,38.79,40.83
375,1313005,"KURNOOL","VELGODE","Velgode1",78.580756,15.715785,38.75,39.52,39.66,38.13,37.11,37.61,38.61,38.28,39.9
376,813019,"PRAKASAM","DARSI","EastVenkataPuram",79.649865,15.747668,40.47,41.47,42.17,39.13,38.75,41.36,40.99,40.67,42.92
377,1321015,"KURNOOL","YEMMIGANUR","Kadivella",77.491856,15.687299,37.65,39.09,39.49,37.01,38.71,37.01,38.21,38.6,40.14
378,816017,"PRAKASAM","ADDANKI","Nannurupadu",79.944426,15.747688,41.53,42.59,43.24,38.25,38.97,42.67,41.87,40.47,43.3
379,1301035,"KURNOOL","KOWTHALAM","Thovi",77.196772,15.708303,37.55,38.81,39.33,37.26,38.33,37.43,38.55,38.8,40.19
380,827002,"PRAKASAM","KORISAPADU","BodduvaniPalem",80.005988,15.720876,41.78,42.43,43.4,38.68,39.85,43.03,42.17,40.68,43.72
381,1318010,"KURNOOL","KALLUR","PeddaTekur",77.997442,15.725101,38.54,40.14,40.38,37.12,37.51,37.85,38.88,38.79,40.83
382,1318012,"KURNOOL","KALLUR","Thadakanapalle",78.032597,15.717002,38.54,40.14,40.38,37.12,37.51,37.85,38.88,38.79,40.83
383,810006,"PRAKASAM","TARLAPADU","Pothalapadu",79.380852,15.732208,39.76,41.25,41.41,38.51,38.08,40.28,40.09,39.33,42.48
384,816018,"PRAKASAM","ADDANKI","Modepalle",79.919065,15.724771,41.53,42.59,43.24,38.25,38.97,42.67,41.87,40.47,43.3
385,813022,"PRAKASAM","DARSI","EastChoutapalem",79.69337,15.735565,40.48,42.74,42.37,38.66,38.98,41.73,41.44,40.12,42.99
386,1323012,"KURNOOL","ADONI","Pandavagallu",77.237179,15.706783,37.55,38.81,39.33,37.26,38.33,37.43,38.55,38.8,40.19
387,1316014,"KURNOOL","MIDTHUR","Chintalapalle",78.285951,15.712628,39.43,39.99,40.14,38.01,37.7,38.51,38.25,38.61,39.72
388,809018,"PRAKASAM","MARKAPUR","Chintakunta1",79.201088,15.721015,39.31,41.64,40.86,38,37.24,38.63,39.06,39.32,41.52
389,1320006,"KURNOOL","GONEGANDLA","HandriKhairawadi",77.65206,15.71337,38.08,39.38,39.74,36.26,37.66,36.89,38.13,38.95,40.17
390,1323018,"KURNOOL","ADONI","Mantriki",77.299668,15.70451,37.29,38.98,39.33,36.8,38.38,37.36,38.28,38.17,40.04
391,814029,"PRAKASAM","MUNDLAMURU","SinganaPalem",79.803564,15.740276,40.94,42.71,42.59,38.32,38.99,42.16,41.62,40.29,43.05
392,890908,"PRAKASAM","MARKAPUR","MarkapurM",79.269042,15.736484,39.93,41.66,41.44,38.53,37.95,39.85,40.17,39.21,42.58
393,813020,"PRAKASAM","DARSI","RamachandraPuram",79.650317,15.728237,40.48,42.74,42.37,38.66,38.98,41.73,41.44,40.12,42.99
394,1321018,"KURNOOL","YEMMIGANUR","Malakapuram",77.367215,15.707214,37.28,39.14,39.43,36.6,38.38,38.44,38.15,38.35,40.04
395,1313003,"KURNOOL","VELGODE","Abdullapuram",78.523312,15.72026,39.55,40.47,40.86,39.12,36.99,37.84,38.74,39.19,40.82
396,1323011,"KURNOOL","ADONI","Ganekal1",77.222452,15.692952,37.55,38.81,39.33,37.26,38.33,37.43,38.55,38.8,40.19
397,827001,"PRAKASAM","KORISAPADU","Anamanamur",79.975727,15.738734,41.78,42.43,43.4,38.68,39.85,43.03,42.17,40.68,43.72
398,1323019,"KURNOOL","ADONI","Dayyalaguddam",77.328651,15.707006,37.29,38.98,39.33,36.8,38.38,37.36,38.28,38.17,40.04
399,1313001,"KURNOOL","VELGODE","Regadigudur",78.467954,15.714829,39.55,40.47,40.86,39.12,36.99,37.84,38.74,39.19,40.82
400,1301032,"KURNOOL","KOWTHALAM","Kuntanahal",77.10921,15.698455,38.25,39.05,39.7,37.56,38.37,39.05,38.92,39.25,40.54
401,811001,"PRAKASAM","KONAKANAMITLA","GanivaniPadu",79.454072,15.733522,39.96,41,41.82,38.93,38.38,40.55,40.21,39.97,42.57
402,827008,"PRAKASAM","KORISAPADU","PamidiPadu",80.108592,15.714714,41.49,43.54,45.83,39.36,41.16,43.06,42.45,41.2,44.34
403,809017,"PRAKASAM","MARKAPUR","Gottipadia",79.147258,15.718782,38.37,40.33,39.89,37.27,36.82,37.88,38.34,38.26,40.47
404,1319002,"KURNOOL","KODUMUR","Varkur",77.732588,15.701651,38.08,39.38,39.74,36.26,37.66,36.89,38.13,38.95,40.17
405,813026,"PRAKASAM","DARSI","SeethaSagaram",79.79044,15.738902,40.94,42.71,42.59,38.32,38.99,42.16,41.62,40.29,43.05
406,1318016,"KURNOOL","KALLUR","Pusulur",77.925021,15.697388,38.81,40.19,40.55,36.45,37.15,37.62,38.84,39.11,40.87
407,890909,"PRAKASAM","MARKAPUR","Forest7",79.153788,15.712204,39.31,41.64,40.86,38,37.24,38.63,39.06,39.32,41.52
408,813018,"PRAKASAM","DARSI","GaneswaraPuram",79.624676,15.737215,40.47,41.47,42.17,39.13,38.75,41.36,40.99,40.67,42.92
409,1323016,"KURNOOL","ADONI","Jalibenchi",77.261685,15.692707,37.29,38.98,39.33,36.8,38.38,37.36,38.28,38.17,40.04
410,811002,"PRAKASAM","KONAKANAMITLA","Vagemadugu",79.472222,15.722547,39.96,41,41.82,38.93,38.38,40.55,40.21,39.97,42.57
411,1320013,"KURNOOL","GONEGANDLA","Iranbanda",77.591778,15.68988,37.91,38.98,39.44,36.86,38.6,36.63,38.19,38.71,40.05
412,1332004,"KURNOOL","GADIVEMULA","Korrapolur",78.419128,15.709596,39.45,39.99,40.4,38.41,36.76,38.18,38.08,38.82,39.79
413,846005,"PRAKASAM","CHINAGANJAM","MotuPalle",80.280364,15.715598,40.2,39.43,43.97,42.27,39.2,41.24,40.43,40.72,42.64
414,815006,"PRAKASAM","THALLUR","Madhavaram1",79.849315,15.728327,40.94,42.71,42.59,38.32,38.99,42.16,41.62,40.29,43.05
415,1317004,"KURNOOL","ORVAKAL","Kannamadakala",78.185255,15.706607,38.72,39.82,39.81,37.79,38.19,37.4,38.1,38.47,40.05
416,1321019,"KURNOOL","YEMMIGANUR","Kotekal",77.391337,15.687185,37.28,39.14,39.43,36.6,38.38,38.44,38.15,38.35,40.04
417,812001,"PRAKASAM","PODILI","Egalapadu",79.595794,15.717919,40.47,41.47,42.17,39.13,38.75,41.36,40.99,40.67,42.92
418,840017,"PRAKASAM","CHINAGANJAM","ChinthagumPalle",80.221264,15.734637,41.42,42.79,44.55,39.51,39.89,42.63,41.86,41.88,44.76
419,1323017,"KURNOOL","ADONI","Doddanakeri",77.281173,15.690385,37.29,38.98,39.33,36.8,38.38,37.36,38.28,38.17,40.04
420,1320007,"KURNOOL","GONEGANDLA","Vemugodu",77.684431,15.69949,38.08,39.38,39.74,36.26,37.66,36.89,38.13,38.95,40.17
421,816019,"PRAKASAM","ADDANKI","DhenuvaKonda",79.943068,15.713189,41.53,42.59,43.24,38.25,38.97,42.67,41.87,40.47,43.3
422,812002,"PRAKASAM","PODILI","KesavabhotlaPalem",79.609947,15.713718,40.47,41.47,42.17,39.13,38.75,41.36,40.99,40.67,42.92
423,1319005,"KURNOOL","KODUMUR","Amadaguntla",77.858915,15.702789,38.81,40.19,40.55,36.45,37.15,37.62,38.84,39.11,40.87
424,815009,"PRAKASAM","THALLUR","Sarvamitta",79.796656,15.725692,40.94,42.71,42.59,38.32,38.99,42.16,41.62,40.29,43.05
425,1318013,"KURNOOL","KALLUR","ChinnaTekur",77.996431,15.697776,38.54,40.14,40.38,37.12,37.51,37.85,38.88,38.79,40.83
426,1313009,"KURNOOL","VELGODE","Pangidigudem1",78.68257,15.721112,36.99,37.82,37.46,36.08,35.6,36.35,36.72,37.05,37.98
427,813028,"PRAKASAM","DARSI","Samanthapudi",79.714266,15.706472,40.48,42.74,42.37,38.66,38.98,41.73,41.44,40.12,42.99
428,1319006,"KURNOOL","KODUMUR","Anugonda",77.894674,15.691496,38.81,40.19,40.55,36.45,37.15,37.62,38.84,39.11,40.87
429,1316012,"KURNOOL","MIDTHUR","Talamudipi",78.363831,15.69388,39.45,39.99,40.4,38.41,36.76,38.18,38.08,38.82,39.79
430,845015,"PRAKASAM","NAGULUPPALAPADU","Edumudi",80.183217,15.72378,41.42,42.79,44.55,39.51,39.89,42.63,41.86,41.88,44.76
431,827010,"PRAKASAM","KORISAPADU","Rachapudi",80.14747,15.718294,41.49,43.54,45.83,39.36,41.16,43.06,42.45,41.2,44.34
432,1320014,"KURNOOL","GONEGANDLA","Ganjihalli",77.534197,15.686726,37.65,39.09,39.49,37.01,38.71,37.01,38.21,38.6,40.14
433,1318015,"KURNOOL","KALLUR","Bellavaram",77.944483,15.696238,38.81,40.19,40.55,36.45,37.15,37.62,38.84,39.11,40.87
434,805030,"PRAKASAM","DONAKONDA","WestKambhampadu",79.53785,15.722612,39.96,41,41.82,38.93,38.38,40.55,40.21,39.97,42.57
435,1313002,"KURNOOL","VELGODE","Velpanur",78.497024,15.693157,39.55,40.47,40.86,39.12,36.99,37.84,38.74,39.19,40.82
436,809007,"PRAKASAM","MARKAPUR","Rayavaram1",79.315522,15.710927,39.93,41.66,41.44,38.53,37.95,39.85,40.17,39.21,42.58
437,1316013,"KURNOOL","MIDTHUR","Jalakanur",78.314903,15.696628,39.43,39.99,40.14,38.01,37.7,38.51,38.25,38.61,39.72
438,827007,"PRAKASAM","KORISAPADU","DyvalaRavuru",80.060969,15.708799,41.49,43.54,45.83,39.36,41.16,43.06,42.45,41.2,44.34
439,827003,"PRAKASAM","KORISAPADU","Somavarappadu",80.03593,15.722375,41.78,42.43,43.4,38.68,39.85,43.03,42.17,40.68,43.72
440,810005,"PRAKASAM","TARLAPADU","Ganugapenta",79.353529,15.702583,39.76,41.25,41.41,38.51,38.08,40.28,40.09,39.33,42.48
441,809013,"PRAKASAM","MARKAPUR","SivaramPuram",79.235102,15.721218,39.31,41.64,40.86,38,37.24,38.63,39.06,39.32,41.52
442,810007,"PRAKASAM","TARLAPADU","KandallaPalle",79.387143,15.715023,39.76,41.25,41.41,38.51,38.08,40.28,40.09,39.33,42.48
443,812003,"PRAKASAM","PODILI","Pamulapadu2",79.623509,15.700745,40.47,41.47,42.17,39.13,38.75,41.36,40.99,40.67,42.92
444,846006,"PRAKASAM","CHINAGANJAM","Chinaganjam1",80.23204,15.695422,41.42,42.79,44.55,39.51,39.89,42.63,41.86,41.88,44.76
445,1319003,"KURNOOL","KODUMUR","Kodumur1",77.790791,15.686164,38.51,39.87,40.32,36.05,36.97,37.46,38.57,39.18,40.54
446,1323001,"KURNOOL","ADONI","Hanavalu",77.149088,15.678004,38.25,39.05,39.7,37.56,38.37,39.05,38.92,39.25,40.54
447,890910,"PRAKASAM","MARKAPUR","Forest8",79.178304,15.707902,39.31,41.64,40.86,38,37.24,38.63,39.06,39.32,41.52
448,805029,"PRAKASAM","DONAKONDA","TellaPadu",79.517588,15.719288,39.96,41,41.82,38.93,38.38,40.55,40.21,39.97,42.57
449,811006,"PRAKASAM","KONAKANAMITLA","Veligandla1",79.569137,15.706574,40.47,41.47,42.17,39.13,38.75,41.36,40.99,40.67,42.92
450,1317011,"KURNOOL","ORVAKAL","Orvakal1",78.167512,15.686324,38.72,39.82,39.81,37.79,38.19,37.4,38.1,38.47,40.05
451,1322018,"KURNOOL","PEDDAKADUBUR","Tarapuram",77.313956,15.688372,37.29,38.98,39.33,36.8,38.38,37.36,38.28,38.17,40.04
452,815008,"PRAKASAM","THALLUR","BellamkondavariPalem",79.808811,15.71098,40.94,42.71,42.59,38.32,38.99,42.16,41.62,40.29,43.05
453,808010,"PRAKASAM","ARDHAVEEDU","BolluPalle",78.921467,15.703873,36.85,37.67,37.08,35.81,34.55,34.72,35.36,36.39,38.69
454,815014,"PRAKASAM","THALLUR","NagambhotlaPalem",79.822587,15.682161,40.94,42.71,42.59,38.32,38.99,42.16,41.62,40.29,43.05
455,809019,"PRAKASAM","MARKAPUR","Badekhanpeta",79.193837,15.713187,39.31,41.64,40.86,38,37.24,38.63,39.06,39.32,41.52
456,809020,"PRAKASAM","MARKAPUR","ThippayaPalem",79.164054,15.692319,39.31,41.64,40.86,38,37.24,38.63,39.06,39.32,41.52
457,808003,"PRAKASAM","ARDHAVEEDU","Magutur",79.076353,15.70457,38.37,40.33,39.89,37.27,36.82,37.88,38.34,38.26,40.47
458,1323021,"KURNOOL","ADONI","Pesalabanda",77.299679,15.673151,37.29,38.98,39.33,36.8,38.38,37.36,38.28,38.17,40.04
459,1320011,"KURNOOL","GONEGANDLA","Errabadu",77.654414,15.673194,38.08,39.38,39.74,36.26,37.66,36.89,38.13,38.95,40.17
460,1322017,"KURNOOL","PEDDAKADUBUR","Rangapuram1",77.334837,15.687069,37.29,38.98,39.33,36.8,38.38,37.36,38.28,38.17,40.04
461,1320012,"KURNOOL","GONEGANDLA","Neruduppala",77.612927,15.674115,37.91,38.98,39.44,36.86,38.6,36.63,38.19,38.71,40.05
462,1319008,"KURNOOL","KODUMUR","Yerradoddi",77.859694,15.677909,38.81,40.19,40.55,36.45,37.15,37.62,38.84,39.11,40.87
463,811010,"PRAKASAM","KONAKANAMITLA","Ambapuram1",79.447471,15.705402,39.76,41.25,41.41,38.51,38.08,40.28,40.09,39.33,42.48
464,813021,"PRAKASAM","DARSI","RajamPalle",79.6668,15.712236,40.48,42.74,42.37,38.66,38.98,41.73,41.44,40.12,42.99
465,1323010,"KURNOOL","ADONI","G.Hosalli",77.195235,15.682139,37.55,38.81,39.33,37.26,38.33,37.43,38.55,38.8,40.19
466,815010,"PRAKASAM","THALLUR","Lakkavaram",79.78503,15.701108,40.94,42.71,42.59,38.32,38.99,42.16,41.62,40.29,43.05
467,809012,"PRAKASAM","MARKAPUR","YellaPuram",79.245532,15.711349,39.31,41.64,40.86,38,37.24,38.63,39.06,39.32,41.52
468,811011,"PRAKASAM","KONAKANAMITLA","RegumaniPalle",79.416099,15.699093,39.76,41.25,41.41,38.51,38.08,40.28,40.09,39.33,42.48
469,816009,"PRAKASAM","MARKAPUR","NarasimhaPuram1",79.25711,15.703682,39.93,41.66,41.44,38.53,37.95,39.85,40.17,39.21,42.58
470,815016,"PRAKASAM","THALLUR","Sivarampuram",79.867414,15.693259,41.53,42.59,43.24,38.25,38.97,42.67,41.87,40.47,43.3
471,809008,"PRAKASAM","MARKAPUR","Goguladinne",79.281956,15.699386,39.93,41.66,41.44,38.53,37.95,39.85,40.17,39.21,42.58
472,815015,"PRAKASAM","THALLUR","Somavrappadu",79.843885,15.706877,40.94,42.71,42.59,38.32,38.99,42.16,41.62,40.29,43.05
473,811005,"PRAKASAM","KONAKANAMITLA","Munagapadu",79.537701,15.69137,39.96,41,41.82,38.93,38.38,40.55,40.21,39.97,42.57
474,845014,"PRAKASAM","NAGULUPPALAPADU","Mattigunta",80.174275,15.702316,41.42,42.79,44.55,39.51,39.89,42.63,41.86,41.88,44.76
475,1321020,"KURNOOL","YEMMIGANUR","Devibetta",77.416254,15.672843,37.28,39.14,39.43,36.6,38.38,38.44,38.15,38.35,40.04
476,813030,"PRAKASAM","DARSI","Jamukuladinne",79.691988,15.706693,40.48,42.74,42.37,38.66,38.98,41.73,41.44,40.12,42.99
477,1332005,"KURNOOL","GADIVEMULA","BilakalaGudur",78.446211,15.68911,39.45,39.99,40.4,38.41,36.76,38.18,38.08,38.82,39.79
478,1313010,"KURNOOL","VELGODE","Abbirajukunta",78.656321,15.700181,36.99,37.82,37.46,36.08,35.6,36.35,36.72,37.05,37.98
479,1317006,"KURNOOL","ORVAKAL","Sakunala",78.243734,15.675713,38.72,39.82,39.81,37.79,38.19,37.4,38.1,38.47,40.05
480,808009,"PRAKASAM","ARDHAVEEDU","Ardhaveedu1",78.961164,15.674667,37.58,39.16,38.85,36.87,35.71,36.75,37.46,37.13,39.93
481,1317013,"KURNOOL","ORVAKAL","Loddipalle",78.085028,15.681727,38.22,39.78,39.87,37.53,37.98,37.64,38.36,38.62,40.4
482,1313007,"KURNOOL","VELGODE","Boyarevula",78.560733,15.688076,38.75,39.52,39.66,38.13,37.11,37.61,38.61,38.28,39.9
483,828002,"PRAKASAM","MADDIPADU","Gadiyapudi",79.970386,15.692754,41.78,42.43,43.4,38.68,39.85,43.03,42.17,40.68,43.72
484,1318017,"KURNOOL","KALLUR","Remadur",77.913564,15.677367,38.81,40.19,40.55,36.45,37.15,37.62,38.84,39.11,40.87
485,1323029,"KURNOOL","ADONI","Isvi",77.237055,15.652683,37.55,38.81,39.33,37.26,38.33,37.43,38.55,38.8,40.19
486,810001,"PRAKASAM","TARLAPADU","GorugunthalaPadu",79.219956,15.688996,39.31,41.64,40.86,38,37.24,38.63,39.06,39.32,41.52
487,811004,"PRAKASAM","KONAKANAMITLA","BasavaPuram1",79.509359,15.69515,39.96,41,41.82,38.93,38.38,40.55,40.21,39.97,42.57
488,809011,"PRAKASAM","MARKAPUR","Krishnapuram2",79.244194,15.703103,39.31,41.64,40.86,38,37.24,38.63,39.06,39.32,41.52
489,1333017,"KURNOOL","ADONI","Forest9",77.2729,15.657421,37.29,38.98,39.33,36.8,38.38,37.36,38.28,38.17,40.04
490,1317014,"KURNOOL","ORVAKAL","Bodduvanipalle",78.028847,15.672598,38.54,40.14,40.38,37.12,37.51,37.85,38.88,38.79,40.83
491,1320008,"KURNOOL","GONEGANDLA","Thippanur",77.698735,15.669821,38.08,39.38,39.74,36.26,37.66,36.89,38.13,38.95,40.17
492,811003,"PRAKASAM","KONAKANAMITLA","Mummayapalem",79.49535,15.70212,39.96,41,41.82,38.93,38.38,40.55,40.21,39.97,42.57
493,1332001,"KURNOOL","GADIVEMULA","Gani1",78.296521,15.65912,39.43,39.99,40.14,38.01,37.7,38.51,38.25,38.61,39.72
494,811016,"PRAKASAM","KONAKANAMITLA","BodaPadu",79.480022,15.701707,39.96,41,41.82,38.93,38.38,40.55,40.21,39.97,42.57
495,1320009,"KURNOOL","GONEGANDLA","Lingamdinne",77.736147,15.67452,38.08,39.38,39.74,36.26,37.66,36.89,38.13,38.95,40.17
496,1332003,"KURNOOL","GADIVEMULA","Gadivemula1",78.406995,15.675224,39.45,39.99,40.4,38.41,36.76,38.18,38.08,38.82,39.79
497,811012,"PRAKASAM","KONAKANAMITLA","GurralaMadugu",79.399758,15.685152,39.76,41.25,41.41,38.51,38.08,40.28,40.09,39.33,42.48
498,1323009,"KURNOOL","ADONI","Kadithota",77.219965,15.670375,37.55,38.81,39.33,37.26,38.33,37.43,38.55,38.8,40.19
499,813031,"PRAKASAM","DARSI","AnnaVaram",79.657544,15.695894,40.48,42.74,42.37,38.66,38.98,41.73,41.44,40.12,42.99
500,828001,"PRAKASAM","MADDIPADU","Garlapadu",79.952269,15.695403,41.78,42.43,43.4,38.68,39.85,43.03,42.17,40.68,43.72
501,845001,"PRAKASAM","NAGULUPPALAPADU","Kothakota2",80.042189,15.688301,41.78,42.43,43.4,38.68,39.85,43.03,42.17,40.68,43.72
502,809021,"PRAKASAM","MARKAPUR","MalyavanthuniPadu",79.193315,15.686121,39.31,41.64,40.86,38,37.24,38.63,39.06,39.32,41.52
503,1323020,"KURNOOL","ADONI","Sulthanapuram",77.299519,15.674961,37.29,38.98,39.33,36.8,38.38,37.36,38.28,38.17,40.04
504,1317005,"KURNOOL","ORVAKAL","Thippayapalle",78.214051,15.665477,38.72,39.82,39.81,37.79,38.19,37.4,38.1,38.47,40.05
505,1323022,"KURNOOL","ADONI","Kapati",77.336861,15.664361,37.29,38.98,39.33,36.8,38.38,37.36,38.28,38.17,40.04
506,1318018,"KURNOOL","KALLUR","Nayakallu",77.937411,15.6619,38.81,40.19,40.55,36.45,37.15,37.62,38.84,39.11,40.87
507,813003,"PRAKASAM","DARSI","Thummedalapadu",79.687295,15.697024,40.48,42.74,42.37,38.66,38.98,41.73,41.44,40.12,42.99
508,1318014,"KURNOOL","KALLUR","ChetlaMallapuram",77.970963,15.670249,38.54,40.14,40.38,37.12,37.51,37.85,38.88,38.79,40.83
509,808011,"PRAKASAM","ARDHAVEEDU","PapineniPalle",78.92235,15.670212,36.85,37.67,37.08,35.81,34.55,34.72,35.36,36.39,38.69
510,815007,"PRAKASAM","THALLUR","Ramabhadrapuram1",79.838284,15.702761,40.94,42.71,42.59,38.32,38.99,42.16,41.62,40.29,43.05
511,1332002,"KURNOOL","GADIVEMULA","Manchalakatta",78.340512,15.682429,39.43,39.99,40.14,38.01,37.7,38.51,38.25,38.61,39.72
512,1323008,"KURNOOL","ADONI","Madire1",77.19892,15.639427,37.45,38.78,38.64,36.91,38.26,37.88,38.25,38.5,39.94
513,810008,"PRAKASAM","TARLAPADU","Ragasamudram",79.383167,15.680131,39.76,41.25,41.41,38.51,38.08,40.28,40.09,39.33,42.48
514,1317012,"KURNOOL","ORVAKAL","Meedivemula",78.104674,15.663877,38.22,39.78,39.87,37.53,37.98,37.64,38.36,38.62,40.4
515,811008,"PRAKASAM","KONAKANAMITLA","ChintaGunta",79.489971,15.676355,39.96,41,41.82,38.93,38.38,40.55,40.21,39.97,42.57
516,829001,"PRAKASAM","CHIMAKURTHI","Ilapavuluru",79.905548,15.681747,41.53,42.59,43.24,38.25,38.97,42.67,41.87,40.47,43.3
517,813029,"PRAKASAM","DARSI","AkkamambaPuram",79.683757,15.687737,40.48,42.74,42.37,38.66,38.98,41.73,41.44,40.12,42.99
518,810002,"PRAKASAM","TARLAPADU","Seetanagulavaram",79.2442,15.684911,39.31,41.64,40.86,38,37.24,38.63,39.06,39.32,41.52
519,828003,"PRAKASAM","MADDIPADU","Annangi",79.995573,15.679823,41.78,42.43,43.4,38.68,39.85,43.03,42.17,40.68,43.72
520,1318021,"KURNOOL","KALLUR","Yaparlapadu",78.003108,15.638788,37.73,39.61,39.6,37.57,37.48,37.36,38.36,38.3,40.17
521,810004,"PRAKASAM","TARLAPADU","Kethagudipi",79.305628,15.679533,39.93,41.66,41.44,38.53,37.95,39.85,40.17,39.21,42.58
522,808005,"PRAKASAM","ARDHAVEEDU","Kakarla",79.109407,15.638513,39.91,41.35,40.87,38.48,38.22,39.27,39.57,39.38,41.6
523,845012,"PRAKASAM","NAGULUPPALAPADU","Kandlagunta",80.138966,15.69016,41.49,43.54,45.83,39.36,41.16,43.06,42.45,41.2,44.34
524,811009,"PRAKASAM","KONAKANAMITLA","BuradaPalem",79.473303,15.68834,39.96,41,41.82,38.93,38.38,40.55,40.21,39.97,42.57
525,890932,"PRAKASAM","ARDHAVEEDU","Forest10",79.121891,15.672338,38.37,40.33,39.89,37.27,36.82,37.88,38.34,38.26,40.47
526,812004,"PRAKASAM","PODILI","Kunchepalle",79.636753,15.678695,40.47,41.47,42.17,39.13,38.75,41.36,40.99,40.67,42.92
527,1319010,"KURNOOL","KODUMUR","Mudumalagurthy",77.778093,15.65609,38.51,39.87,40.32,36.05,36.97,37.46,38.57,39.18,40.54
528,1323002,"KURNOOL","ADONI","Santhekudlur",77.151606,15.641116,37.45,38.78,38.64,36.91,38.26,37.88,38.25,38.5,39.94
529,1327002,"KURNOOL","DEVANAKONDA","Ternekal",77.539553,15.634728,37.64,38.62,38.99,35.67,38.26,36.26,38.16,38.45,39.84
530,811017,"PRAKASAM","KONAKANAMITLA","AswarayuniPalem",79.46023,15.678304,39.96,41,41.82,38.93,38.38,40.55,40.21,39.97,42.57
531,810003,"PRAKASAM","TARLAPADU","Surepalle",79.264829,15.676971,39.93,41.66,41.44,38.53,37.95,39.85,40.17,39.21,42.58
532,811015,"PRAKASAM","KONAKANAMITLA","VaddiMadugu",79.438666,15.680651,39.76,41.25,41.41,38.51,38.08,40.28,40.09,39.33,42.48
533,1323023,"KURNOOL","ADONI","Arekal",77.370887,15.653665,37.28,39.14,39.43,36.6,38.38,38.44,38.15,38.35,40.04
534,815012,"PRAKASAM","THALLUR","BoddikuraPadu",79.763287,15.660578,40.94,42.71,42.59,38.32,38.99,42.16,41.62,40.29,43.05
535,1327003,"KURNOOL","DEVANAKONDA","Palakurthy",77.586714,15.638065,37.78,38.45,38.93,35.56,37.49,36.03,37.9,38.25,39.64
536,1313008,"KURNOOL","VELGODE","Mothukur",78.551479,15.667345,38.75,39.52,39.66,38.13,37.11,37.61,38.61,38.28,39.9
537,1319009,"KURNOOL","KODUMUR","Gorantla1",77.823511,15.622973,38.09,39.75,39.82,36.88,37.39,37.08,38.38,39.05,40.42
538,1390907,"KURNOOL","ADONI","Adoni1",77.284719,15.636999,37.24,38.97,38.37,36.31,38.39,37.59,38.17,37.99,39.77
539,1317010,"KURNOOL","ORVAKAL","Guttapadu",78.162153,15.661755,38.72,39.82,39.81,37.79,38.19,37.4,38.1,38.47,40.05
540,808004,"PRAKASAM","ARDHAVEEDU","PottiBasavaiPalle",79.086982,15.674864,38.37,40.33,39.89,37.27,36.82,37.88,38.34,38.26,40.47
541,890911,"PRAKASAM","MARKAPUR","Forest11",79.14882,15.666537,38.37,40.33,39.89,37.27,36.82,37.88,38.34,38.26,40.47
542,812009,"PRAKASAM","PODILI","Sudanagunta",79.583446,15.672747,40.47,41.47,42.17,39.13,38.75,41.36,40.99,40.67,42.92
543,845002,"PRAKASAM","NAGULUPPALAPADU","Nidamanur",80.073049,15.661414,41.49,43.54,45.83,39.36,41.16,43.06,42.45,41.2,44.34
544,845013,"PRAKASAM","NAGULUPPALAPADU","Uppugundur",80.162919,15.670812,41.42,42.79,44.55,39.51,39.89,42.63,41.86,41.88,44.76
545,846007,"PRAKASAM","CHINAGANJAM","Pedaganjam",80.215006,15.649487,41.02,41.86,43.84,41.64,39.57,42,41.59,40.92,44.39
546,1326002,"KURNOOL","ASPARI","Mulugundam",77.436449,15.635345,37.31,39.02,38.66,35.81,38.44,38.09,38.05,38.31,39.78
547,1320015,"KURNOOL","GONEGANDLA","Byluppala",77.498208,15.645299,37.64,38.62,38.99,35.67,38.26,36.26,38.16,38.45,39.84
548,1323003,"KURNOOL","ADONI","PeddaHarivanam",77.078723,15.617226,37.96,38.9,38.99,37.55,38.29,38.81,38.56,38.9,40.23
549,815011,"PRAKASAM","THALLUR","Sankaranarayanapuram",79.73079,15.679376,40.48,42.74,42.37,38.66,38.98,41.73,41.44,40.12,42.99
550,1328001,"KURNOOL","KRISHNAGIRI","Mannegunta",77.80878,15.627702,38.09,39.75,39.82,36.88,37.39,37.08,38.38,39.05,40.42
551,827009,"PRAKASAM","KORISAPADU","PrasangulaPadu",80.113429,15.679372,41.49,43.54,45.83,39.36,41.16,43.06,42.45,41.2,44.34
552,810009,"PRAKASAM","TARLAPADU","Kaluzuwwalapadu",79.366894,15.663966,39.76,41.25,41.41,38.51,38.08,40.28,40.09,39.33,42.48
553,1332008,"KURNOOL","GADIVEMULA","Chennakkapalle",78.339237,15.639552,39.47,39.82,40.42,38.61,37.44,37.77,38.56,38.94,39.91
554,1320010,"KURNOOL","GONEGANDLA","Kurnur",77.733348,15.637798,37.78,39.02,39.12,35.96,37.06,36.33,37.89,38.51,39.77
555,813033,"PRAKASAM","DARSI","Kothapalle1",79.683383,15.67452,40.48,42.74,42.37,38.66,38.98,41.73,41.44,40.12,42.99
556,1331888,"KURNOOL","BANDIATMAKUR","Forest12",78.686544,15.587046,35.95,37.13,37.23,35.75,35.21,35.99,36.26,36.26,37.61
557,1332007,"KURNOOL","GADIVEMULA","Bujanur",78.442003,15.663074,39.45,39.99,40.4,38.41,36.76,38.18,38.08,38.82,39.79
558,1303001,"KURNOOL","BANDIATMAKUR","Narayanapuram1",78.586762,15.652886,38.75,39.52,39.66,38.13,37.11,37.61,38.61,38.28,39.9
559,808008,"PRAKASAM","ARDHAVEEDU","Donakonda1",78.999822,15.666432,37.58,39.16,38.85,36.87,35.71,36.75,37.46,37.13,39.93
560,810010,"PRAKASAM","TARLAPADU","JangamreddiPalle",79.3438,15.672959,39.93,41.66,41.44,38.53,37.95,39.85,40.17,39.21,42.58
561,810012,"PRAKASAM","TARLAPADU","ThummalaCheruvu",79.282346,15.652028,39.93,41.66,41.44,38.53,37.95,39.85,40.17,39.21,42.58
562,1304001,"KURNOOL","DEVANAKONDA","Machapuram",77.655729,15.637762,37.78,39.02,39.12,35.96,37.06,36.33,37.89,38.51,39.77
563,1332006,"KURNOOL","GADIVEMULA","Pesaravayi",78.475478,15.653302,39.55,40.47,40.86,39.12,36.99,37.84,38.74,39.19,40.82
564,845011,"PRAKASAM","NAGULUPPALAPADU","NaguluppalaPadu",80.128349,15.649486,41.71,43.31,45.59,39.39,41.34,42.61,42.26,39.87,44.7
565,1323027,"KURNOOL","ADONI","S.Kondapuram",77.322845,15.645186,37.24,38.97,38.37,36.31,38.39,37.59,38.17,37.99,39.77
566,811007,"PRAKASAM","KONAKANAMITLA","NagarajuGunta",79.517929,15.66809,39.96,41,41.82,38.93,38.38,40.55,40.21,39.97,42.57
567,828011,"PRAKASAM","MADDIPADU","Doddavaram",79.953015,15.665105,41.78,42.43,43.4,38.68,39.85,43.03,42.17,40.68,43.72
568,828004,"PRAKASAM","MADDIPADU","GundlaPalle",80.016821,15.666425,41.78,42.43,43.4,38.68,39.85,43.03,42.17,40.68,43.72
569,808007,"PRAKASAM","ARDHAVEEDU","AyyavariPalle",79.040831,15.663094,37.58,39.16,38.85,36.87,35.71,36.75,37.46,37.13,39.93
570,812005,"PRAKASAM","PODILI","DasallaPalle",79.660032,15.670048,40.48,42.74,42.37,38.66,38.98,41.73,41.44,40.12,42.99
571,808006,"PRAKASAM","ARDHAVEEDU","PedaKandukur",79.036217,15.650755,37.58,39.16,38.85,36.87,35.71,36.75,37.46,37.13,39.93
572,1323024,"KURNOOL","ADONI","Chinnapendekal",77.3939,15.628879,37.31,39.02,38.66,35.81,38.44,38.09,38.05,38.31,39.78
573,1319007,"KURNOOL","KODUMUR","Laddagiri",77.887875,15.631677,38.44,40.11,40.05,37.5,37.84,37.61,38.7,39.21,40.72
574,810013,"PRAKASAM","TARLAPADU","Tellapadu",79.24312,15.659622,39.31,41.64,40.86,38,37.24,38.63,39.06,39.32,41.52
575,809022,"PRAKASAM","MARKAPUR","BhupathiPalle",79.17365,15.656583,39.31,41.64,40.86,38,37.24,38.63,39.06,39.32,41.52
576,813032,"PRAKASAM","DARSI","LakshmiNarayanaPuram1",79.67984,15.675325,40.48,42.74,42.37,38.66,38.98,41.73,41.44,40.12,42.99
577,1320016,"KURNOOL","GONEGANDLA","BandameediAgraharam",77.471441,15.63258,37.64,38.62,38.99,35.67,38.26,36.26,38.16,38.45,39.84
578,813034,"PRAKASAM","DARSI","Korlamadugu",79.704509,15.659016,40.48,42.74,42.37,38.66,38.98,41.73,41.44,40.12,42.99
579,1317015,"KURNOOL","ORVAKAL","Uyyalawada1",78.068901,15.635471,37.3,39.01,39.31,37.32,36.69,37,37.62,37.76,39.7
580,810025,"PRAKASAM","TARLAPADU","KondaReddiPalle",79.34117,15.647175,39.13,40.92,40.81,38.04,37.87,40.6,39.66,39,42.34
581,1323026,"KURNOOL","ADONI","Bychigeri",77.351476,15.637528,37.31,39.02,38.66,35.81,38.44,38.09,38.05,38.31,39.78
582,1333001,"KURNOOL","BANDIATMAKUR","Bhojanam",78.511193,15.648273,38.83,40.65,41.2,39.54,37.49,38.78,39.31,39.58,41.29
583,829002,"PRAKASAM","CHIMAKURTHI","RangasaiPuram",79.921856,15.670299,41.53,42.59,43.24,38.25,38.97,42.67,41.87,40.47,43.3
584,812008,"PRAKASAM","PODILI","Zuvvaleru",79.615586,15.653079,40.47,41.47,42.17,39.13,38.75,41.36,40.99,40.67,42.92
585,828010,"PRAKASAM","MADDIPADU","Venkateswarapuram",79.976141,15.671379,41.78,42.43,43.4,38.68,39.85,43.03,42.17,40.68,43.72
586,811018,"PRAKASAM","KONAKANAMITLA","VedurrallaPadu",79.461973,15.656867,39.96,41,41.82,38.93,38.38,40.55,40.21,39.97,42.57
587,1395903,"KURNOOL","GADIVEMULA","Undutla",78.368228,15.631633,38.95,40.14,40.87,39.2,37.31,38.44,38.7,39.3,40.28
588,811023,"PRAKASAM","KONAKANAMITLA","ThuvvaPadu",79.438938,15.640757,39.42,40.88,40.73,38.02,37.82,41.17,39.75,39.29,42.01
589,833014,"PRAKASAM","NAGULUPPALAPADU","Pothavaram1",80.102184,15.661178,41.49,43.54,45.83,39.36,41.16,43.06,42.45,41.2,44.34
590,812006,"PRAKASAM","PODILI","Ramulaveedu",79.677585,15.650458,40.48,42.74,42.37,38.66,38.98,41.73,41.44,40.12,42.99
591,1318020,"KURNOOL","KALLUR","Ulindakonda",77.971052,15.631002,37.73,39.61,39.6,37.57,37.48,37.36,38.36,38.3,40.17
592,1323030,"KURNOOL","ADONI","Parvathapuram",77.245756,15.627135,37.45,38.78,38.64,36.91,38.26,37.88,38.25,38.5,39.94
593,811014,"PRAKASAM","KONAKANAMITLA","MarriPalem",79.415197,15.654073,39.76,41.25,41.41,38.51,38.08,40.28,40.09,39.33,42.48
594,812011,"PRAKASAM","PODILI","KondayaPalem",79.541901,15.662044,39.96,41,41.82,38.93,38.38,40.55,40.21,39.97,42.57
595,810014,"PRAKASAM","TARLAPADU","Tarlupadu",79.210979,15.652896,39.31,41.64,40.86,38,37.24,38.63,39.06,39.32,41.52
596,890912,"PRAKASAM","CHIMAKURTHI","Forest13",79.835063,15.637201,41.41,43.4,42.68,38.49,38.62,42.48,41.79,40.55,43.06
597,1318019,"KURNOOL","KALLUR","Konganapadu",77.927171,15.633241,38.44,40.11,40.05,37.5,37.84,37.61,38.7,39.21,40.72
598,1328002,"KURNOOL","KRISHNAGIRI","Pothugal",77.770827,15.608989,38.09,39.75,39.82,36.88,37.39,37.08,38.38,39.05,40.42
599,828005,"PRAKASAM","MADDIPADU","RachavariPalem",80.048009,15.649397,41.55,43.09,43.3,38.91,40.91,42.96,42.17,40.63,43.94
600,811013,"PRAKASAM","KONAKANAMITLA","Garladinne2",79.388456,15.647387,39.42,40.88,40.73,38.02,37.82,41.17,39.75,39.29,42.01
601,1317008,"KURNOOL","ORVAKAL","Husainapuram",78.180273,15.640602,38.38,39.24,39.79,37.75,36.86,37.07,37.8,37.94,39.77
602,828006,"PRAKASAM","MADDIPADU","KeerthiPadu",80.029962,15.650877,41.78,42.43,43.4,38.68,39.85,43.03,42.17,40.68,43.72
603,1327004,"KURNOOL","DEVANAKONDA","Kappatralla",77.647759,15.600926,37.78,38.45,38.93,35.56,37.49,36.03,37.9,38.25,39.64
604,1329888,"KURNOOL","PANYAM","Forest14",78.288875,15.564101,39.47,39.82,40.42,38.61,37.44,37.77,38.56,38.94,39.91
605,811019,"PRAKASAM","KONAKANAMITLA","Konakanamitla1",79.488295,15.639064,39.85,41.2,41.78,38.64,38.05,40.27,40.21,40.42,42.22
606,810023,"PRAKASAM","TARLAPADU","MangalaKunta",79.312268,15.623658,39.13,40.92,40.81,38.04,37.87,40.6,39.66,39,42.34
607,810011,"PRAKASAM","TARLAPADU","ObayaPalle",79.333454,15.651978,39.93,41.66,41.44,38.53,37.95,39.85,40.17,39.21,42.58
608,829003,"PRAKASAM","CHIMAKURTHI","PallaMalli",79.89363,15.650666,41.53,42.59,43.24,38.25,38.97,42.67,41.87,40.47,43.3
609,1317007,"KURNOOL","ORVAKAL","Brahmanapalle",78.231144,15.641746,38.38,39.24,39.79,37.75,36.86,37.07,37.8,37.94,39.77
610,829004,"PRAKASAM","CHIMAKURTHI","Nekunambadu",79.924415,15.650242,41.53,42.59,43.24,38.25,38.97,42.67,41.87,40.47,43.3
611,1317009,"KURNOOL","ORVAKAL","N.Konthalapadu",78.143502,15.634447,37.3,39.01,39.31,37.32,36.69,37,37.62,37.76,39.7
612,812010,"PRAKASAM","PODILI","Thummagunta",79.581958,15.650872,40.47,41.47,42.17,39.13,38.75,41.36,40.99,40.67,42.92
613,812007,"PRAKASAM","MADDIPADU","Mallavaram",79.979789,15.647939,41.55,43.09,43.3,38.91,40.91,42.96,42.17,40.63,43.94
614,810024,"PRAKASAM","TARLAPADU","JagannadhaPuram1",79.302769,15.648393,39.13,40.92,40.81,38.04,37.87,40.6,39.66,39,42.34
615,1333004,"KURNOOL","BANDIATMAKUR","PeddaDevalapuram",78.547863,15.643361,38.83,40.65,41.2,39.54,37.49,38.78,39.31,39.58,41.29
616,828009,"PRAKASAM","PODILI","Mallavaram1",79.639406,15.648514,40.38,41.97,42.25,38.99,38.29,41,40.89,40.57,42.95
617,1323004,"KURNOOL","ADONI","Yadavalle",77.124559,15.619431,37.96,38.9,38.99,37.55,38.29,38.81,38.56,38.9,40.23
618,1317016,"KURNOOL","ORVAKAL","Uppalapadu",78.116474,15.629042,37.3,39.01,39.31,37.32,36.69,37,37.62,37.76,39.7
619,1390908,"KURNOOL","ADONI","AdoniM",77.276163,15.622664,37.24,38.97,38.37,36.31,38.39,37.59,38.17,37.99,39.77
620,812012,"PRAKASAM","PODILI","Salakanuthala",79.548066,15.650099,39.96,41,41.82,38.93,38.38,40.55,40.21,39.97,42.57
621,1329004,"KURNOOL","VELDURTHIKURNOOL","Pullagummi",78.025452,15.624224,37.73,39.61,39.6,37.57,37.48,37.36,38.36,38.3,40.17
622,1332009,"KURNOOL","GADIVEMULA","Chindukuru",78.446686,15.634959,38.95,40.14,40.87,39.2,37.31,38.44,38.7,39.3,40.28
623,1323025,"KURNOOL","ADONI","Sambagallu",77.367045,15.618534,37.31,39.02,38.66,35.81,38.44,38.09,38.05,38.31,39.78
624,1329005,"KURNOOL","VELDURTHIKURNOOL","Kalugotla2",78.046704,15.591137,37.73,39.61,39.6,37.57,37.48,37.36,38.36,38.3,40.17
625,810021,"PRAKASAM","TARLAPADU","ChennaReddiPalle",79.251651,15.633772,39.13,40.92,40.81,38.04,37.87,40.6,39.66,39,42.34
626,1323039,"KURNOOL","ADONI","MandagiriRural",77.291088,15.596511,37.24,38.97,38.37,36.31,38.39,37.59,38.17,37.99,39.77
627,811020,"PRAKASAM","KONAKANAMITLA","VeerabhadraPuram",79.521076,15.651206,39.96,41,41.82,38.93,38.38,40.55,40.21,39.97,42.57
628,1390909,"KURNOOL","ADONI","Vengalapuram",77.294789,15.625192,37.24,38.97,38.37,36.31,38.39,37.59,38.17,37.99,39.77
629,813035,"PRAKASAM","DARSI","ThripuraSundariPuram",79.727679,15.644756,40.99,43.48,42.51,38.81,38.59,42.03,41.6,40.31,43.11
630,809023,"PRAKASAM","MARKAPUR","BondalaPadu",79.184234,15.629394,39.5,41.54,40.93,38.3,37.66,39.38,39.45,39.61,42.04
631,834001,"PRAKASAM","CUMBUM","Jangamguntla",79.146232,15.640815,39.91,41.35,40.87,38.48,38.22,39.27,39.57,39.38,41.6
632,1323041,"KURNOOL","ADONI","Nettekal",77.342597,15.617775,37.24,38.97,38.37,36.31,38.39,37.59,38.17,37.99,39.77
633,828008,"PRAKASAM","MADDIPADU","Kolachanakota",79.997761,15.641418,41.55,43.09,43.3,38.91,40.91,42.96,42.17,40.63,43.94
634,1323005,"KURNOOL","ADONI","Baladur",77.130768,15.604216,37.96,38.9,38.99,37.55,38.29,38.81,38.56,38.9,40.23
635,845010,"PRAKASAM","NAGULUPPALAPADU","Machavaram1",80.159812,15.639522,41.02,41.86,43.84,41.64,39.57,42,41.59,40.92,44.39
636,1333003,"KURNOOL","BANDIATMAKUR","Santhajutur",78.538342,15.620136,38.83,40.65,41.2,39.54,37.49,38.78,39.31,39.58,41.29
637,1326004,"KURNOOL","ASPARI","Banavanur",77.492095,15.605714,37.64,38.62,38.99,35.67,38.26,36.26,38.16,38.45,39.84
638,812023,"PRAKASAM","PODILI","Nimmavaram",79.658963,15.632272,40.99,43.48,42.51,38.81,38.59,42.03,41.6,40.31,43.11
639,813036,"PRAKASAM","DARSI","KrishnaPuram",79.704992,15.64121,40.99,43.48,42.51,38.81,38.59,42.03,41.6,40.31,43.11
640,1317017,"KURNOOL","ORVAKAL","Kalva",78.182675,15.612411,38.38,39.24,39.79,37.75,36.86,37.07,37.8,37.94,39.77
641,829005,"PRAKASAM","CHIMAKURTHI","Chandrapadu",79.941231,15.631893,41.52,42.26,43.41,38.36,39.26,42.53,41.88,40.61,43.24
642,1327006,"KURNOOL","DEVANAKONDA","P.Kotakonda",77.700921,15.596373,37.78,39.02,39.12,35.96,37.06,36.33,37.89,38.51,39.77
643,845004,"PRAKASAM","NAGULUPPALAPADU","Chadalawada",80.098681,15.620277,41.71,43.31,45.59,39.39,41.34,42.61,42.26,39.87,44.7
644,1328006,"KURNOOL","KRISHNAGIRI","ShotriumYerragudi",77.837834,15.608119,38.09,39.75,39.82,36.88,37.39,37.08,38.38,39.05,40.42
645,812013,"PRAKASAM","PODILI","MugaChinthala",79.524555,15.635283,39.85,41.2,41.78,38.64,38.05,40.27,40.21,40.42,42.22
646,1333002,"KURNOOL","BANDIATMAKUR","Paramatur",78.502081,15.626749,38.83,40.65,41.2,39.54,37.49,38.78,39.31,39.58,41.29
647,1323037,"KURNOOL","ADONI","Kallubavi",77.249163,15.597078,37.45,38.78,38.64,36.91,38.26,37.88,38.25,38.5,39.94
648,810026,"PRAKASAM","TARLAPADU","LakshmakkaPalle",79.351063,15.624904,39.42,40.88,40.73,38.02,37.82,41.17,39.75,39.29,42.01
649,813037,"PRAKASAM","DARSI","Pedauyyalawada",79.718795,15.630094,40.99,43.48,42.51,38.81,38.59,42.03,41.6,40.31,43.11
650,812014,"PRAKASAM","PODILI","Dondleru",79.557006,15.632123,40.38,41.97,42.25,38.99,38.29,41,40.89,40.57,42.95
651,1333006,"KURNOOL","BANDIATMAKUR","GaliChennaiahPalem",78.575535,15.611746,37.58,39.4,39.83,38.39,37.39,37.9,38.82,38.03,40.19
652,810015,"PRAKASAM","TARLAPADU","KarumaniPalle",79.221783,15.632902,39.5,41.54,40.93,38.3,37.66,39.38,39.45,39.61,42.04
653,1323006,"KURNOOL","ADONI","ChinnaGonehal",77.159295,15.603107,37.45,38.78,38.64,36.91,38.26,37.88,38.25,38.5,39.94
654,828007,"PRAKASAM","MADDIPADU","VellamPalle",80.005197,15.629958,41.55,43.09,43.3,38.91,40.91,42.96,42.17,40.63,43.94
655,829009,"PRAKASAM","CHIMAKURTHI","Devarapalem",79.78682,15.628441,41.41,43.4,42.68,38.49,38.62,42.48,41.79,40.55,43.06
656,828013,"PRAKASAM","MADDIPADU","Maddipadu1",80.019968,15.616989,41.55,43.09,43.3,38.91,40.91,42.96,42.17,40.63,43.94
657,1328007,"KURNOOL","KRISHNAGIRI","Tallagokulapadu",77.877551,15.60369,38.44,40.11,40.05,37.5,37.84,37.61,38.7,39.21,40.72
658,890913,"PRAKASAM","TARLAPADU","Forest15",79.358682,15.596263,39.42,40.88,40.73,38.02,37.82,41.17,39.75,39.29,42.01
659,812021,"PRAKASAM","PODILI","AkkaCheruvu",79.582991,15.633335,40.38,41.97,42.25,38.99,38.29,41,40.89,40.57,42.95
660,1323040,"KURNOOL","ADONI","Dibbanakal1",77.319418,15.604843,37.24,38.97,38.37,36.31,38.39,37.59,38.17,37.99,39.77
661,1323031,"KURNOOL","ADONI","V.Kondapuram",77.214994,15.611255,37.45,38.78,38.64,36.91,38.26,37.88,38.25,38.5,39.94
662,1323007,"KURNOOL","ADONI","ChinnaHarivanam",77.181611,15.596081,37.45,38.78,38.64,36.91,38.26,37.88,38.25,38.5,39.94
663,1326001,"KURNOOL","ASPARI","DudadudiKotakonda",77.406355,15.590073,37.31,39.02,38.66,35.81,38.44,38.09,38.05,38.31,39.78
664,1326003,"KURNOOL","ASPARI","Karumanchi",77.454595,15.591989,37.64,38.62,38.99,35.67,38.26,36.26,38.16,38.45,39.84
665,1332011,"KURNOOL","GADIVEMULA","Gadigarevula",78.437048,15.60994,38.95,40.14,40.87,39.2,37.31,38.44,38.7,39.3,40.28
666,1332010,"KURNOOL","GADIVEMULA","Karimaddala",78.488285,15.606443,38.83,40.65,41.2,39.54,37.49,38.78,39.31,39.58,41.29
667,829012,"PRAKASAM","CHIMAKURTHI","Chimakurthi1",79.859441,15.598666,41.52,42.26,43.41,38.36,39.26,42.53,41.88,40.61,43.24
668,828012,"PRAKASAM","MADDIPADU","Nelatur",79.982959,15.616883,41.55,43.09,43.3,38.91,40.91,42.96,42.17,40.63,43.94
669,1323015,"KURNOOL","ADONI","Ballekallu",77.208005,15.595078,37.45,38.78,38.64,36.91,38.26,37.88,38.25,38.5,39.94
670,812022,"PRAKASAM","PODILI","Podili1",79.624546,15.603272,40.38,41.97,42.25,38.99,38.29,41,40.89,40.57,42.95
671,829007,"PRAKASAM","CHIMAKURTHI","Bandlamudi",79.895828,15.620181,41.52,42.26,43.41,38.36,39.26,42.53,41.88,40.61,43.24
672,829008,"PRAKASAM","CHIMAKURTHI","Padamatinaidupalem",79.88097,15.624355,41.52,42.26,43.41,38.36,39.26,42.53,41.88,40.61,43.24
673,810016,"PRAKASAM","TARLAPADU","MeerjaPeta",79.222451,15.617147,39.5,41.54,40.93,38.3,37.66,39.38,39.45,39.61,42.04
674,808012,"PRAKASAM","ARDHAVEEDU","Yerraguntla1",78.920548,15.623556,36.67,38.04,37.88,36.53,34.94,35.65,36.22,36.86,39.29
675,812026,"PRAKASAM","PODILI","AnnaVaram1",79.696462,15.625751,40.99,43.48,42.51,38.81,38.59,42.03,41.6,40.31,43.11
676,815013,"PRAKASAM","THALLUR","SurayaPalem",79.743388,15.63284,40.99,43.48,42.51,38.81,38.59,42.03,41.6,40.31,43.11
677,1327010,"KURNOOL","DEVANAKONDA","Karivemula",77.58443,15.587385,37.78,38.45,38.93,35.56,37.49,36.03,37.9,38.25,39.64
678,1323042,"KURNOOL","ADONI","Salakalakonda",77.349206,15.598366,37.24,38.97,38.37,36.31,38.39,37.59,38.17,37.99,39.77
679,1327001,"KURNOOL","DEVANAKONDA","Potlapadu",77.524717,15.594291,37.64,38.62,38.99,35.67,38.26,36.26,38.16,38.45,39.84
680,834002,"PRAKASAM","CUMBUM","LanjaKota",79.16294,15.612251,39.5,41.54,40.93,38.3,37.66,39.38,39.45,39.61,42.04
681,1329002,"KURNOOL","VELDURTHIKURNOOL","Mallepalle",77.949835,15.598859,38.44,40.11,40.05,37.5,37.84,37.61,38.7,39.21,40.72
682,812024,"PRAKASAM","PODILI","Teegadurthipadu",79.669742,15.614064,40.99,43.48,42.51,38.81,38.59,42.03,41.6,40.31,43.11
683,828015,"PRAKASAM","MADDIPADU","Nandipadu",80.050897,15.627809,41.71,43.31,45.59,39.39,41.34,42.61,42.26,39.87,44.7
684,813038,"PRAKASAM","DARSI","ChinaUyyalawada",79.738243,15.614249,40.99,43.48,42.51,38.81,38.59,42.03,41.6,40.31,43.11
685,1324001,"KURNOOL","HOLAGUNDA","Gajjehalli",77.04791,15.572457,38.41,39.26,39.25,38.02,38.54,38.61,38.88,39.08,40.52
686,1324004,"KURNOOL","HOLAGUNDA","Ingaladahal",77.138453,15.592077,37.96,38.9,38.99,37.55,38.29,38.81,38.56,38.9,40.23
687,1317018,"KURNOOL","ORVAKAL","Palakolanu",78.132833,15.600283,37.3,39.01,39.31,37.32,36.69,37,37.62,37.76,39.7
688,1329006,"KURNOOL","VELDURTHIKURNOOL","Bukkapuram1",78.089613,15.592238,37.3,39.01,39.31,37.32,36.69,37,37.62,37.76,39.7
689,1303006,"KURNOOL","ADONI","Basapuram",77.363533,15.586311,37.31,39.02,38.66,35.81,38.44,38.09,38.05,38.31,39.78
690,811021,"PRAKASAM","KONAKANAMITLA","Siddavaram",79.510291,15.605221,39.85,41.2,41.78,38.64,38.05,40.27,40.21,40.42,42.22
691,812020,"PRAKASAM","PODILI","MadalavariPalem",79.582469,15.619126,40.38,41.97,42.25,38.99,38.29,41,40.89,40.57,42.95
692,808013,"PRAKASAM","ARDHAVEEDU","Bogolu",79.043839,15.598956,38.94,40.15,40.12,38.26,37.22,38.27,39.11,38.28,40.96
693,828016,"PRAKASAM","MADDIPADU","Inamanamellur",80.062177,15.603617,41.71,43.31,45.59,39.39,41.34,42.61,42.26,39.87,44.7
694,845009,"PRAKASAM","NAGULUPPALAPADU","Raparla",80.15534,15.616979,41.02,41.86,43.84,41.64,39.57,42,41.59,40.92,44.39
695,1331001,"KURNOOL","PANYAM","Pinnapuram1",78.246027,15.583414,38.38,39.24,39.79,37.75,36.86,37.07,37.8,37.94,39.77
696,829006,"PRAKASAM","CHIMAKURTHI","TorragudiPadu",79.909505,15.615106,41.52,42.26,43.41,38.36,39.26,42.53,41.88,40.61,43.24
697,811024,"PRAKASAM","KONAKANAMITLA","VinjavarthiPadu",79.391693,15.603472,39.42,40.88,40.73,38.02,37.82,41.17,39.75,39.29,42.01
698,1330888,"KURNOOL","VELDURTHIKURNOOL","Forest16",78.018866,15.596747,37.73,39.61,39.6,37.57,37.48,37.36,38.36,38.3,40.17
699,811022,"PRAKASAM","KONAKANAMITLA","Katragunta",79.443377,15.59892,39.42,40.88,40.73,38.02,37.82,41.17,39.75,39.29,42.01
700,1323045,"KURNOOL","ADONI","Gonabavi",77.322517,15.590929,37.24,38.97,38.37,36.31,38.39,37.59,38.17,37.99,39.77
701,1324003,"KURNOOL","HOLAGUNDA","MaddiLingadahalli",77.136067,15.581981,37.96,38.9,38.99,37.55,38.29,38.81,38.56,38.9,40.23
702,812015,"PRAKASAM","PODILI","ObulakkaPalle",79.549835,15.606783,39.85,41.2,41.78,38.64,38.05,40.27,40.21,40.42,42.22
703,1328003,"KURNOOL","KRISHNAGIRI","Agaveli",77.735663,15.575154,37.78,39.02,39.12,35.96,37.06,36.33,37.89,38.51,39.77
704,843009,"PRAKASAM","SANTHANUTHLAPADU","PidathalagudiPadu",79.961574,15.604834,41.55,43.09,43.3,38.91,40.91,42.96,42.17,40.63,43.94
705,890914,"PRAKASAM","CHIMAKURTHI","Forest17",79.79683,15.607505,41.41,43.4,42.68,38.49,38.62,42.48,41.79,40.55,43.06
706,828014,"PRAKASAM","MADDIPADU","Seetharampuram1",80.032235,15.612627,41.55,43.09,43.3,38.91,40.91,42.96,42.17,40.63,43.94
707,812019,"PRAKASAM","PODILI","RamayanaKandrika",79.573462,15.610712,40.38,41.97,42.25,38.99,38.29,41,40.89,40.57,42.95
708,829014,"PRAKASAM","CHIMAKURTHI","Yerragudipadu",79.923791,15.600433,41.52,42.26,43.41,38.36,39.26,42.53,41.88,40.61,43.24
709,810020,"PRAKASAM","TARLAPADU","NagendlaMudupu",79.263659,15.60117,39.13,40.92,40.81,38.04,37.87,40.6,39.66,39,42.34
710,829010,"PRAKASAM","CHIMAKURTHI","Nippatlapadu",79.769354,15.604195,41.41,43.4,42.68,38.49,38.62,42.48,41.79,40.55,43.06
711,812025,"PRAKASAM","PODILI","AmudalaPalle",79.681689,15.609439,40.99,43.48,42.51,38.81,38.59,42.03,41.6,40.31,43.11
712,1317019,"KURNOOL","ORVAKAL","Somyajulapalle",78.164388,15.582149,38.38,39.24,39.79,37.75,36.86,37.07,37.8,37.94,39.77
713,1328008,"KURNOOL","KRISHNAGIRI","Thogarchedu",77.871578,15.569334,38.44,40.11,40.05,37.5,37.84,37.61,38.7,39.21,40.72
714,845018,"PRAKASAM","NAGULUPPALAPADU","Kanuparthi",80.203301,15.589064,41.02,41.86,43.84,41.64,39.57,42,41.59,40.92,44.39
715,1328005,"KURNOOL","KRISHNAGIRI","Krishnagiri1",77.827019,15.563867,38.09,39.75,39.82,36.88,37.39,37.08,38.38,39.05,40.42
716,812027,"PRAKASAM","PODILI","ChintagumPalle",79.700977,15.605097,40.99,43.48,42.51,38.81,38.59,42.03,41.6,40.31,43.11
717,810017,"PRAKASAM","TARLAPADU","GollaPalle",79.219125,15.591435,39.5,41.54,40.93,38.3,37.66,39.38,39.45,39.61,42.04
718,1327007,"KURNOOL","DEVANAKONDA","S.Thimmapuram",77.67738,15.585503,37.78,39.02,39.12,35.96,37.06,36.33,37.89,38.51,39.77
719,834004,"PRAKASAM","CUMBUM","KandulaPuram",79.128937,15.59964,39.91,41.35,40.87,38.48,38.22,39.27,39.57,39.38,41.6
720,1323044,"KURNOOL","ADONI","Huvvanur",77.339716,15.581153,37.24,38.97,38.37,36.31,38.39,37.59,38.17,37.99,39.77
721,810022,"PRAKASAM","TARLAPADU","TadivariPalle",79.299165,15.590526,39.13,40.92,40.81,38.04,37.87,40.6,39.66,39,42.34
722,1324005,"KURNOOL","HOLAGUNDA","PeddaGonehal",77.140342,15.570914,37.96,38.9,38.99,37.55,38.29,38.81,38.56,38.9,40.23
723,1323046,"KURNOOL","ADONI","Virupapuram",77.322797,15.567374,37.24,38.97,38.37,36.31,38.39,37.59,38.17,37.99,39.77
724,1323033,"KURNOOL","ADONI","NaganathanaHalli",77.212842,15.557854,37.45,38.78,38.64,36.91,38.26,37.88,38.25,38.5,39.94
725,845007,"PRAKASAM","NAGULUPPALAPADU","CheervanuppalaPadu",80.110342,15.589741,41.71,43.31,45.59,39.39,41.34,42.61,42.26,39.87,44.7
726,845008,"PRAKASAM","NAGULUPPALAPADU","AmmanaBrolu",80.145729,15.584226,41.71,43.31,45.59,39.39,41.34,42.61,42.26,39.87,44.7
727,843008,"PRAKASAM","SANTHANUTHLAPADU","KonaganiVariPalem",79.938835,15.601369,41.52,42.26,43.41,38.36,39.26,42.53,41.88,40.61,43.24
728,834009,"PRAKASAM","CUMBUM","Cumbum1",79.096137,15.589245,39.91,41.35,40.87,38.48,38.22,39.27,39.57,39.38,41.6
729,1324002,"KURNOOL","HOLAGUNDA","Vandavagali",77.085373,15.551347,37.96,38.9,38.99,37.55,38.29,38.81,38.56,38.9,40.23
730,1333008,"KURNOOL","BANDIATMAKUR","BandiAtmakur1",78.547874,15.581988,38.83,40.65,41.2,39.54,37.49,38.78,39.31,39.58,41.29
731,1329001,"KURNOOL","VELDURTHIKURNOOL","Narlapuram",77.940896,15.579048,38.44,40.11,40.05,37.5,37.84,37.61,38.7,39.21,40.72
732,1333007,"KURNOOL","BANDIATMAKUR","Ramapuram2",78.552951,15.595512,37.58,39.4,39.83,38.39,37.39,37.9,38.82,38.03,40.19
733,834003,"PRAKASAM","CUMBUM","NadimPalle",79.144571,15.599468,39.91,41.35,40.87,38.48,38.22,39.27,39.57,39.38,41.6
734,1332012,"KURNOOL","GADIVEMULA","Thirupadu",78.445548,15.59102,38.95,40.14,40.87,39.2,37.31,38.44,38.7,39.3,40.28
735,1329003,"KURNOOL","VELDURTHIKURNOOL","Ramallakota",78.001539,15.574382,37.73,39.61,39.6,37.57,37.48,37.36,38.36,38.3,40.17
736,835001,"PRAKASAM","RACHERLA","Akaveedu1",78.93316,15.569391,36.67,38.04,37.88,36.53,34.94,35.65,36.22,36.86,39.29
737,1332014,"KURNOOL","GADIVEMULA","Durvesi",78.41597,15.577848,38.95,40.14,40.87,39.2,37.31,38.44,38.7,39.3,40.28
738,1326005,"KURNOOL","ASPARI","Khyruppala",77.470662,15.546477,37.13,38.48,38.75,35.03,37.83,36.37,37.75,38.15,39.52
739,812028,"PRAKASAM","PODILI","LakshmiPuram",79.719215,15.60165,40.99,43.48,42.51,38.81,38.59,42.03,41.6,40.31,43.11
740,1327011,"KURNOOL","DEVANAKONDA","Kunkanur",77.540898,15.562136,37.64,38.62,38.99,35.67,38.26,36.26,38.16,38.45,39.84
741,812018,"PRAKASAM","PODILI","NandiPalem",79.574433,15.597791,40.38,41.97,42.25,38.99,38.29,41,40.89,40.57,42.95
742,829017,"PRAKASAM","CHIMAKURTHI","RajupalemLaxmipuram",79.824708,15.582227,41.41,43.4,42.68,38.49,38.62,42.48,41.79,40.55,43.06
743,1326011,"KURNOOL","ASPARI","Tangaradona",77.371166,15.557027,37.31,39.02,38.66,35.81,38.44,38.09,38.05,38.31,39.78
744,829011,"PRAKASAM","CHIMAKURTHI","Budavada1",79.792904,15.585438,41.41,43.4,42.68,38.49,38.62,42.48,41.79,40.55,43.06
745,834005,"PRAKASAM","CUMBUM","AurangaBad",79.161467,15.585474,39.5,41.54,40.93,38.3,37.66,39.38,39.45,39.61,42.04
746,1326008,"KURNOOL","ASPARI","Yatakallu",77.42869,15.551684,37.31,39.02,38.66,35.81,38.44,38.09,38.05,38.31,39.78
747,829013,"PRAKASAM","CHIMAKURTHI","KandurivariAgraharam",79.8849,15.593117,41.52,42.26,43.41,38.36,39.26,42.53,41.88,40.61,43.24
748,1333009,"KURNOOL","BANDIATMAKUR","Yerraguntla2",78.485159,15.573094,38.83,40.65,41.2,39.54,37.49,38.78,39.31,39.58,41.29
749,1327008,"KURNOOL","DEVANAKONDA","Chellelichelimala",77.687124,15.538337,37.29,38.81,38.88,35.8,35.95,35.75,37.66,37.62,39.42
750,1323036,"KURNOOL","ADONI","Dhanapuram",77.262018,15.560487,37.24,38.97,38.37,36.31,38.39,37.59,38.17,37.99,39.77
751,833013,"PRAKASAM","BESTAVARIPETA","RetlaPalle",79.190811,15.584887,39.5,41.54,40.93,38.3,37.66,39.38,39.45,39.61,42.04
752,829015,"PRAKASAM","CHIMAKURTHI","Manchikalapadu",79.90329,15.585436,41.52,42.26,43.41,38.36,39.26,42.53,41.88,40.61,43.24
753,1329010,"KURNOOL","VELDURTHIKURNOOL","Veldurthi1",77.938517,15.545455,38.04,39.8,39.41,37.34,37.54,37.27,38.22,38.57,40.18
754,843002,"PRAKASAM","SANTHANUTHLAPADU","Rudravaram2",79.988747,15.594483,41.55,43.09,43.3,38.91,40.91,42.96,42.17,40.63,43.94
755,834013,"PRAKASAM","CUMBUM","LingapuramKhandrika",79.016921,15.586378,38.94,40.15,40.12,38.26,37.22,38.27,39.11,38.28,40.96
756,810019,"PRAKASAM","TARLAPADU","PathePuram",79.248514,15.587607,39.5,41.54,40.93,38.3,37.66,39.38,39.45,39.61,42.04
757,812029,"PRAKASAM","PODILI","Thalamalla",79.717664,15.582886,40.99,43.48,42.51,38.81,38.59,42.03,41.6,40.31,43.11
758,828018,"PRAKASAM","MADDIPADU","PedaKothaPalle",80.007597,15.574385,41.55,43.09,43.3,38.91,40.91,42.96,42.17,40.63,43.94
759,812016,"PRAKASAM","PODILI","Kambhalapadu",79.568264,15.579507,40.38,41.97,42.25,38.99,38.29,41,40.89,40.57,42.95
760,845005,"PRAKASAM","NAGULUPPALAPADU","MaddiralaPadu",80.089778,15.591373,41.71,43.31,45.59,39.39,41.34,42.61,42.26,39.87,44.7
761,1324006,"KURNOOL","HOLAGUNDA","Hebbatam",77.150177,15.545951,36.94,38.66,38.65,36.65,38.11,37.88,37.75,38.47,39.53
762,830002,"PRAKASAM","MARRIPUDI","KellamPalle1",79.684879,15.56347,40.99,43.48,42.51,38.81,38.59,42.03,41.6,40.31,43.11
763,810018,"PRAKASAM","TARLAPADU","RolagamPadu",79.212467,15.574051,39.5,41.54,40.93,38.3,37.66,39.38,39.45,39.61,42.04
764,834012,"PRAKASAM","CUMBUM","LingaPuram",79.045667,15.565988,38.94,40.15,40.12,38.26,37.22,38.27,39.11,38.28,40.96
765,828017,"PRAKASAM","MADDIPADU","Doddavarappadu",80.034025,15.585719,41.55,43.09,43.3,38.91,40.91,42.96,42.17,40.63,43.94
766,830001,"PRAKASAM","MARRIPUDI","GosukondaAgraharam",79.68639,15.587009,40.99,43.48,42.51,38.81,38.59,42.03,41.6,40.31,43.11
767,1327009,"KURNOOL","DEVANAKONDA","Jilledubudakala",77.627697,15.55021,37.78,38.45,38.93,35.56,37.49,36.03,37.9,38.25,39.64
768,1332013,"KURNOOL","GADIVEMULA","Koratamaddi",78.446182,15.573144,38.95,40.14,40.87,39.2,37.31,38.44,38.7,39.3,40.28
769,1330003,"KURNOOL","BETHAMCHERLA","Emboy",78.112537,15.551081,37.3,39.01,39.31,37.32,36.69,37,37.62,37.76,39.7
770,811028,"PRAKASAM","KONAKANAMITLA","BudamkayalaPadu",79.41487,15.577516,39.42,40.88,40.73,38.02,37.82,41.17,39.75,39.29,42.01
771,812030,"PRAKASAM","PODILI","UppalaPadu",79.744775,15.575326,40.99,43.48,42.51,38.81,38.59,42.03,41.6,40.31,43.11
772,1326010,"KURNOOL","ASPARI","Thurvagal",77.400502,15.552046,37.31,39.02,38.66,35.81,38.44,38.09,38.05,38.31,39.78
773,803010,"PRAKASAM","MARRIPUDI","RajuPalem1",79.61651,15.568364,40.38,41.97,42.25,38.99,38.29,41,40.89,40.57,42.95
774,811027,"PRAKASAM","KONAKANAMITLA","Nagampalle",79.395814,15.573309,39.42,40.88,40.73,38.02,37.82,41.17,39.75,39.29,42.01
775,1331002,"KURNOOL","PANYAM","Gorukallu",78.393998,15.56524,38.95,40.14,40.87,39.2,37.31,38.44,38.7,39.3,40.28
776,811025,"PRAKASAM","KONAKANAMITLA","Salanuthala",79.374967,15.564226,39.42,40.88,40.73,38.02,37.82,41.17,39.75,39.29,42.01
777,843013,"PRAKASAM","SANTHANUTHLAPADU","MattiPadu",79.95609,15.576467,41.55,43.09,43.3,38.91,40.91,42.96,42.17,40.63,43.94
778,811032,"PRAKASAM","KONAKANAMITLA","Chinarikatla1",79.535127,15.560011,39.85,41.2,41.78,38.64,38.05,40.27,40.21,40.42,42.22
779,834008,"PRAKASAM","CUMBUM","Kagitalagudem",79.120461,15.576279,39.91,41.35,40.87,38.48,38.22,39.27,39.57,39.38,41.6
780,1326013,"KURNOOL","ASPARI","Nagarur",77.303842,15.53716,37.24,38.88,38.31,35.39,38.31,37.62,37.7,38.01,39.44
781,811031,"PRAKASAM","KONAKANAMITLA","Batchalakurapadu",79.487824,15.570121,39.85,41.2,41.78,38.64,38.05,40.27,40.21,40.42,42.22
782,845006,"PRAKASAM","NAGULUPPALAPADU","ChekuraPadu",80.087297,15.575362,41.71,43.31,45.59,39.39,41.34,42.61,42.26,39.87,44.7
783,834006,"PRAKASAM","CUMBUM","Ravipadu1",79.151352,15.56944,39.5,41.54,40.93,38.3,37.66,39.38,39.45,39.61,42.04
784,1328004,"KURNOOL","KRISHNAGIRI","Yerukalacheruvu",77.767492,15.547034,37.62,39.54,39.46,37.04,36.68,37.07,38.11,38.21,40.07
785,1333010,"KURNOOL","BANDIATMAKUR","Kakanur",78.502885,15.563026,38.83,40.65,41.2,39.54,37.49,38.78,39.31,39.58,41.29
786,1324010,"KURNOOL","HOLAGUNDA","Holagunda1",77.044611,15.496995,37.94,39.38,39.2,38.33,38.43,37.91,38.7,38.89,40.14
787,833007,"PRAKASAM","BESTAVARIPETA","ChinthalaPalem",79.106669,15.569663,39.91,41.35,40.87,38.48,38.22,39.27,39.57,39.38,41.6
788,1317020,"KURNOOL","ORVAKAL","Komarolu1",78.155698,15.550881,38.38,39.24,39.79,37.75,36.86,37.07,37.8,37.94,39.77
789,828020,"PRAKASAM","MADDIPADU","Edugundlapadu",80.053547,15.572861,41.71,43.31,45.59,39.39,41.34,42.61,42.26,39.87,44.7
790,1329009,"KURNOOL","VELDURTHIKURNOOL","Sho.Boyanapalle",77.984544,15.556643,37.73,39.61,39.6,37.57,37.48,37.36,38.36,38.3,40.17
791,1334004,"KURNOOL","NANDYAL","Pulimaddi",78.465083,15.549137,38.27,41.51,41.58,40.01,38.28,40.23,40.09,40.02,42.01
792,1333011,"KURNOOL","BANDIATMAKUR","Parnapalle",78.539395,15.557177,38.83,40.65,41.2,39.54,37.49,38.78,39.31,39.58,41.29
793,890915,"PRAKASAM","HANUMANTHUNIPADU","Forest18",79.246471,15.50749,39.13,40.72,40.62,37.77,37.96,39.44,39.05,39.32,41.91
794,1333012,"KURNOOL","BANDIATMAKUR","Ernapadu1",78.580393,15.552937,37.58,39.4,39.83,38.39,37.39,37.9,38.82,38.03,40.19
795,833012,"PRAKASAM","BESTAVARIPETA","PedaObeneniPalle",79.194293,15.564941,39.5,41.54,40.93,38.3,37.66,39.38,39.45,39.61,42.04
796,812031,"PRAKASAM","PODILI","Yeluru",79.767327,15.562176,41.41,43.4,42.68,38.49,38.62,42.48,41.79,40.55,43.06
797,833006,"PRAKASAM","BESTAVARIPETA","Somavarapeta",79.097351,15.565852,39.91,41.35,40.87,38.48,38.22,39.27,39.57,39.38,41.6
798,834011,"PRAKASAM","CUMBUM","ChinaCumbum",79.078752,15.55524,39.91,41.35,40.87,38.48,38.22,39.27,39.57,39.38,41.6
799,1329011,"KURNOOL","VELDURTHIKURNOOL","Cherukulapadu",77.889748,15.537084,38.04,39.8,39.41,37.34,37.54,37.27,38.22,38.57,40.18
800,829018,"PRAKASAM","CHIMAKURTHI","Mylavaram1",79.803178,15.567571,41.41,43.4,42.68,38.49,38.62,42.48,41.79,40.55,43.06
801,834016,"PRAKASAM","CUMBUM","Thurimella",78.989407,15.527436,39.7,41.05,41,38.91,38.89,39.58,40.3,39.14,41.87
802,1323034,"KURNOOL","ADONI","Naranapuram",77.248584,15.538607,36.94,38.66,38.65,36.65,38.11,37.88,37.75,38.47,39.53
803,830003,"PRAKASAM","MARRIPUDI","GundlaSamudram",79.648326,15.558853,40.38,41.97,42.25,38.99,38.29,41,40.89,40.57,42.95
804,1327013,"KURNOOL","DEVANAKONDA","Velamakuru",77.532868,15.51535,37.13,38.48,38.75,35.03,37.83,36.37,37.75,38.15,39.52
805,811029,"PRAKASAM","KONAKANAMITLA","Gotlagattu1",79.423767,15.541413,40.03,41.66,40.93,37.78,37.62,40.36,39.64,39.95,41.9
806,1329007,"KURNOOL","VELDURTHIKURNOOL","Sarparajapuram",78.03327,15.548354,37.34,39.15,38.5,36.66,36.73,36.35,37.47,37.68,39.23
807,811030,"PRAKASAM","KONAKANAMITLA","GarimanaPenta",79.456019,15.553236,39.85,41.2,41.78,38.64,38.05,40.27,40.21,40.42,42.22
808,844002,"PRAKASAM","ONGOLE","Karavadi",80.10905,15.544852,41.55,42.92,46.75,40.81,41.28,42.03,41.94,38.85,44.76
809,1331006,"KURNOOL","PANYAM","Panyam1",78.330549,15.51756,39.5,39.92,40.58,39.37,37.39,38.82,39.08,39,40.33
810,828019,"PRAKASAM","MADDIPADU","Lingamgunta",80.027709,15.559685,41.55,43.09,43.3,38.91,40.91,42.96,42.17,40.63,43.94
811,1327012,"KURNOOL","DEVANAKONDA","Devanakonda1",77.567282,15.531236,37.22,38.28,38.74,34.79,36.48,35.36,37.54,37.62,39.32
812,1326012,"KURNOOL","ASPARI","Benigeri",77.345528,15.531254,37.24,38.88,38.31,35.39,38.31,37.62,37.7,38.01,39.44
813,829016,"PRAKASAM","CHIMAKURTHI","Gonugunta",79.859021,15.544982,41.08,42.51,43.59,38.78,39.88,42.47,42.05,40.88,43.37
814,1323035,"KURNOOL","ADONI","Chagi",77.266254,15.533144,37.24,38.88,38.31,35.39,38.31,37.62,37.7,38.01,39.44
815,834014,"PRAKASAM","CUMBUM","Yerrabalem2",79.017056,15.55544,38.94,40.15,40.12,38.26,37.22,38.27,39.11,38.28,40.96
816,1330001,"KURNOOL","BETHAMCHERLA","Pendakal",78.057649,15.521182,37.04,38.62,38.58,36.55,35.83,35.97,36.84,37.12,39.16
817,834007,"PRAKASAM","CUMBUM","HazaratGudem",79.132331,15.561794,39.91,41.35,40.87,38.48,38.22,39.27,39.57,39.38,41.6
818,833011,"PRAKASAM","BESTAVARIPETA","ChinaObeneniPalle",79.190267,15.551628,39.5,41.54,40.93,38.3,37.66,39.38,39.45,39.61,42.04
819,843003,"PRAKASAM","SANTHANUTHLAPADU","GuruvareddyPalem",79.895395,15.559049,41.52,42.26,43.41,38.36,39.26,42.53,41.88,40.61,43.24
820,836016,"PRAKASAM","GIDDALURU","Bogada",78.8344,15.551507,35.12,36.43,36.2,34.81,33.32,34.55,34.83,35.95,37.24
821,1331003,"KURNOOL","PANYAM","Kondajutur",78.403815,15.544113,38.89,40.66,41.22,39.88,38.01,39.87,39.41,39.78,41.05
822,1331007,"KURNOOL","PANYAM","Thammarajupalle",78.222158,15.543897,38.51,39.1,39.64,37.85,36.58,36.78,37.75,37.85,39.53
823,832006,"PRAKASAM","HANUMANTHUNIPADU","MohammadaPuram",79.349118,15.54675,39.51,40.77,40.84,37.75,38.25,40.23,39.37,38.82,42.25
824,844001,"PRAKASAM","ONGOLE","Throvagunta1",80.066022,15.553096,41.71,43.31,45.59,39.39,41.34,42.61,42.26,39.87,44.7
825,1334003,"KURNOOL","NANDYAL","Munagala1",78.443016,15.54682,38.89,40.66,41.22,39.88,38.01,39.87,39.41,39.78,41.05
826,844003,"PRAKASAM","ONGOLE","Ulichi1",80.161522,15.543398,39.88,40.84,45.46,41.59,38.93,41.25,41.39,39.32,43.22
827,834010,"PRAKASAM","CUMBUM","PorumamillaPalle",79.09277,15.556062,39.91,41.35,40.87,38.48,38.22,39.27,39.57,39.38,41.6
