"Sno","SP_CODE","DISTRICT","MANDAL","VILLAGE","LON","LAT","09-04-25","10-04-25","11-04-25","12-04-25","13-04-25","14-04-25","15-04-25","16-04-25","17-04-25"
1,826001,"PRAKASAM","JANAKAVARAMPANGULU","Ramakuru",80.03999,15.892867,0.48,0.32,0.43,0.33,0.03,0.3,0.0600000000000001,0.01,0
2,1315004,"KURNOOL","JUPADUBUNGALOW","Bollavaram",78.377097,15.885363,0,0.03,2.08,0.55,0.0299999999999998,1.52,0,0,0
3,1330889,"KURNOOL","ATMAKURKURNOOL","Pinnapuram",78.654945,15.886427,0,0,4.39,6.84,0.279999999999999,1.1,0,0,0
4,820009,"PRAKASAM","MARTUR","LakkavaramAgraharam",80.061727,15.906479,0.21,0.83,0.2,0.39,0.33,0.93,0.04,0,0.0599999999999996
5,1303014,"KURNOOL","MANTRALAYAM","Budur",77.380195,15.868793,0,0,0,0,0.07,0.32,0,0,0
6,805004,"PRAKASAM","DONAKONDA","PadamaraLakshmipuram",79.387233,15.888066,0.02,0.03,0.4,0.03,0.11,0.24,0.02,0.01,0
7,822002,"PRAKASAM","KARAMCHEDU","Karamchedu1",80.321381,15.887126,1.32,2.42,0.0499999999999998,2,0.00999999999999979,0,0.0800000000000001,0,0
8,806008,"PRAKASAM","PEDAARAVEEDU","BoyadaGumpula",79.243357,15.885803,0,0.08,0.04,0.16,0.03,1.14,0.01,0.04,0
9,1301011,"KURNOOL","KOWTHALAM","Thippaladoddi",77.165642,15.871667,0,0,0.08,0.03,0,0.17,0,0,0
10,1307007,"KURNOOL","KURNOOL","G.Singavaram1",77.934328,15.87304,0,0,0.52,0.26,0.54,0.25,0,0,0
11,806007,"PRAKASAM","PEDAARAVEEDU","ThokaPalle",79.291841,15.882713,0.01,0.1,0.1,0.01,0.09,0.61,0.0199999999999999,0.02,0
12,1301001,"KURNOOL","KOWTHALAM","Nadichagi",77.050836,15.858904,0,0,1.44,0.0800000000000001,0.01,0.15,0,0,0
13,1303015,"KURNOOL","MANTRALAYAM","Chilakaladona",77.417441,15.866402,0,0,0,0,0.07,0.32,0,0,0
14,756005,"GUNTUR","KARLAPALEM","Perali",80.564029,15.892302,0.43,0.32,2.72,3.06,0,0.0800000000000001,0.0199999999999996,0.0200000000000005,0.0800000000000001
15,806005,"PRAKASAM","PEDAARAVEEDU","Cumbampadu",79.334104,15.878309,0.01,0.1,0.1,0.01,0.09,0.61,0.0199999999999999,0.02,0
16,805003,"PRAKASAM","DONAKONDA","PolePalle",79.430973,15.87979,0.02,0.03,0.4,0.03,0.11,0.24,0.02,0.01,0
17,1314002,"KURNOOL","PAMULAPADU","Jutur",78.448881,15.870672,0,0.03,2.08,0.55,0.0299999999999998,1.52,0,0,0
18,806004,"PRAKASAM","PEDAARAVEEDU","Ambapuram",79.335029,15.893988,0.01,0.1,0.1,0.01,0.09,0.61,0.0199999999999999,0.02,0
19,1314003,"KURNOOL","PAMULAPADU","Chelimella",78.480902,15.863307,0,0.03,1.3,1.21,0.0299999999999998,0.67,0,0,0
20,1302015,"KURNOOL","KOSIGI","Yandapalle",77.215956,15.869363,0,0,0.08,0.03,0,0.17,0,0,0
21,804019,"PRAKASAM","KURICHEDU","Dekanakonda",79.671579,15.883023,0.16,0.15,0.05,0.56,0,0.12,0.03,0,0
22,757017,"GUNTUR","BAPATLA","BapatlaWestRural",80.435648,15.887003,0.78,1.36,2.59,3.3,0,0.0600000000000005,0.0199999999999996,0,0
23,807016,"PRAKASAM","DORNALA","ChilakaCherlaGudem",79.004664,15.885889,0.01,0.21,2.4,0.68,0.0800000000000001,1.35,0.0399999999999991,0.0100000000000007,0
24,1307001,"KURNOOL","KURNOOL","Sunkesula",77.834714,15.870627,0,0,0.11,0.78,0.24,0.17,0,0,0
25,1315003,"KURNOOL","JUPADUBUNGALOW","Tangadancha",78.353557,15.866583,0,0.03,2.08,0.55,0.0299999999999998,1.52,0,0,0
26,820013,"PRAKASAM","MARTUR","BollaPalle",80.09087,15.883023,0.21,0.83,0.2,0.39,0.33,0.93,0.04,0,0.0599999999999996
27,1301010,"KURNOOL","KOWTHALAM","Chudi",77.14523,15.85101,0,0,1.44,0.0800000000000001,0.01,0.15,0,0,0
28,814004,"PRAKASAM","MUNDLAMURU","Purimetla",79.845342,15.879728,0.18,0.38,0,0.57,0,0.91,0.04,0,0.00999999999999979
29,1305005,"KURNOOL","CBELAGAL","Kothakota1",77.797096,15.863397,0,0,0.11,0.78,0.24,0.17,0,0,0
30,1307008,"KURNOOL","KURNOOL","Nidzur",77.97209,15.86234,0,0.03,0.22,0.1,0.64,0.19,0,0,0
31,1302024,"KURNOOL","KOSIGI","Kosigi1",77.247141,15.839242,0,0,0.11,0.01,0.07,0.03,0,0,0
32,757019,"GUNTUR","BAPATLA","Adivi",80.486393,15.850878,0.92,0.77,5.86,6.23,0.00999999999999979,0.0200000000000014,0.0299999999999994,0.00999999999999979,0.0199999999999996
33,814010,"PRAKASAM","MUNDLAMURU","Marella",79.886427,15.871709,0.41,0.66,0.04,1.11,0,0.54,0.0700000000000003,0.02,0.04
34,814006,"PRAKASAM","MUNDLAMURU","Vemula1",79.76763,15.869017,0.18,0.38,0,0.57,0,0.91,0.04,0,0.00999999999999979
35,1303013,"KURNOOL","MANTRALAYAM","Sunkeswari",77.346557,15.85722,0,0,0.02,0.06,0,0.27,0,0,0
36,1308007,"KURNOOL","NANDIKOTKUR","Allur1",78.201215,15.870373,0,0.03,0.13,2.43,0.11,0.7,0,0,0
37,807013,"PRAKASAM","DORNALA","Nallaguntla",78.925441,15.869878,0,0,3.51,0.48,0.0800000000000001,1.42,0.0199999999999996,0,0
38,804018,"PRAKASAM","KURICHEDU","Peddavaram",79.638402,15.869502,0.03,0.08,0,0.54,0.15,0.2,0.04,0,0
39,1311007,"KURNOOL","ATMAKURKURNOOL","Krishnapuram1",78.639276,15.877106,0,0,1.88,4.91,0.14,0.390000000000001,0,0,0
40,825001,"PRAKASAM","INKOLLU","Nagandla",80.146407,15.880184,0.21,0.83,0.2,0.39,0.33,0.93,0.04,0,0.0599999999999996
41,890901,"PRAKASAM","PEDAARAVEEDU","Forest",79.272004,15.877625,0.01,0.1,0.1,0.01,0.09,0.61,0.0199999999999999,0.02,0
42,744020,"GUNTUR","NUZENDLA","Thimmapuram",79.744318,15.87715,0.16,0.15,0.05,0.56,0,0.12,0.03,0,0
43,804009,"PRAKASAM","KURICHEDU","NamassivayaPuram",79.60792,15.881807,0.03,0.08,0,0.54,0.15,0.2,0.04,0,0
44,1302023,"KURNOOL","KOSIGI","Pendekal",77.26401,15.853554,0,0,0.02,0.06,0,0.27,0,0,0
45,1301012,"KURNOOL","KOWTHALAM","Karani1",77.177816,15.85531,0,0,0.08,0.03,0,0.17,0,0,0
46,1315007,"KURNOOL","JUPADUBUNGALOW","Bannur",78.398107,15.860723,0,0.03,2.08,0.55,0.0299999999999998,1.52,0,0,0
47,1314004,"KURNOOL","PAMULAPADU","Iskala",78.51594,15.859633,0,0.03,1.3,1.21,0.0299999999999998,0.67,0,0,0
48,807011,"PRAKASAM","DORNALA","Pedamanthanala",78.891419,15.881823,0,0,3.51,0.48,0.0800000000000001,1.42,0.0199999999999996,0,0
49,1304013,"KURNOOL","NANDAVARAM","Ponakaladinne",77.595749,15.843108,0,0,0.47,0.21,0.7,0.82,0,0,0
50,757020,"GUNTUR","BAPATLA","MaruproluvaripalemRural",80.469103,15.876046,0.92,0.77,5.86,6.23,0.00999999999999979,0.0200000000000014,0.0299999999999994,0.00999999999999979,0.0199999999999996
51,1305009,"KURNOOL","CBELAGAL","C.Belagal",77.662399,15.831281,0,0,0.36,0.2,0.07,0.1,0,0,0
52,1302026,"KURNOOL","KOSIGI","Vandagallu",77.202795,15.844364,0,0,0.11,0.01,0.07,0.03,0,0,0
53,1302025,"KURNOOL","KOSIGI","Nelakosigi",77.227482,15.845152,0,0,0.11,0.01,0.07,0.03,0,0,0
54,1308009,"KURNOOL","NANDIKOTKUR","NandiKotkur1",78.257581,15.855879,0,0.09,1.04,2.4,0.14,0.55,0,0,0
55,1307006,"KURNOOL","KURNOOL","Basavapuram",77.91545,15.849253,0,0,2.11,0.0300000000000002,0.1,0.0299999999999998,0,0,0
56,1307014,"KURNOOL","KURNOOL","E.Thandrapadu",78.050918,15.857393,0,0,0,0.54,0.1,0.42,0,0,0
57,822006,"PRAKASAM","KARAMCHEDU","Swarna",80.284883,15.858035,1.32,2.42,0.0499999999999998,2,0.00999999999999979,0,0.0800000000000001,0,0
58,826002,"PRAKASAM","JANAKAVARAMPANGULU","KondaManjulur",80.08506,15.866574,0.21,0.83,0.2,0.39,0.33,0.93,0.04,0,0.0599999999999996
59,1301018,"KURNOOL","KOWTHALAM","Katriki",77.08266,15.84308,0,0,5.39,0.0100000000000007,0,0,0,0,0
60,822004,"PRAKASAM","KARAMCHEDU","Daggubadu",80.214696,15.869375,0.88,1.48,1.7,1.44,0.31,0.83,0.0500000000000007,0.00999999999999979,0.21
61,806009,"PRAKASAM","PEDAARAVEEDU","Badveedu",79.202687,15.867748,0,0.08,0.04,0.16,0.03,1.14,0.01,0.04,0
62,816007,"PRAKASAM","ADDANKI","ChakrayaPalem",79.953379,15.870226,0.48,0.32,0.43,0.33,0.03,0.3,0.0600000000000001,0.01,0
63,805006,"PRAKASAM","DONAKONDA","RudraSamudram",79.407898,15.854422,0.02,0.03,0.4,0.03,0.11,0.24,0.02,0.01,0
64,1307009,"KURNOOL","KURNOOL","Munagalapadu",77.99343,15.853307,0,0.03,0.22,0.1,0.64,0.19,0,0,0
65,816006,"PRAKASAM","ADDANKI","Kalavakuru",79.992281,15.869266,0.48,0.32,0.43,0.33,0.03,0.3,0.0600000000000001,0.01,0
66,807010,"PRAKASAM","DORNALA","RollaPenta",78.851539,15.873549,0,0,3.51,0.48,0.0800000000000001,1.42,0.0199999999999996,0,0
67,1311008,"KURNOOL","ATMAKURKURNOOL","Siddepalle",78.621951,15.854083,0,0,1.88,4.91,0.14,0.390000000000001,0,0,0
68,807019,"PRAKASAM","DORNALA","KataKaniPalle",79.148577,15.862077,0,0.11,0.6,1.02,0.05,0.64,0.0300000000000002,0.02,0
69,890902,"PRAKASAM","PEDAARAVEEDU","Forest1",79.29462,15.83525,0.01,0.01,0.02,0.12,0.19,1.24,0,0,0
70,805005,"PRAKASAM","DONAKONDA","Ramapuram1",79.371499,15.866269,0.02,0.03,0.4,0.03,0.11,0.24,0.02,0.01,0
71,1303016,"KURNOOL","MANTRALAYAM","HagaruruThimmapuram",77.383155,15.837778,0,0,0.28,0,0.27,1.07,0,0,0
72,1305006,"KURNOOL","CBELAGAL","Polakal",77.745425,15.831633,0,0,0.36,0.2,0.07,0.1,0,0,0
73,1301017,"KURNOOL","KOWTHALAM","Podalakunta",77.114373,15.844243,0,0,5.39,0.0100000000000007,0,0,0,0,0
74,754888,"GUNTUR","NIZAMPATNAM","Dindi",80.744578,15.848695,0.02,0.15,9.71,0.44,0,0.0199999999999996,0,0.00999999999999979,0
75,1311010,"KURNOOL","ATMAKURKURNOOL","Karivena",78.551542,15.854459,0,0,1.88,4.91,0.14,0.390000000000001,0,0,0
76,807014,"PRAKASAM","DORNALA","NallaGuntlaGudem",78.892899,15.87313,0,0,3.51,0.48,0.0800000000000001,1.42,0.0199999999999996,0,0
77,1304017,"KURNOOL","NANDAVARAM","Halaharvi1",77.432051,15.82519,0,0,0.28,0,0.27,1.07,0,0,0
78,1311006,"KURNOOL","ATMAKURKURNOOL","Siddapuram",78.66431,15.855859,0,0,4.39,6.84,0.279999999999999,1.1,0,0,0
79,1301019,"KURNOOL","KOWTHALAM","Myaliganur",77.04405,15.838673,0,0,8.54,0,0,0,0,0,0
80,805007,"PRAKASAM","DONAKONDA","BadaPuram",79.46873,15.851481,0,0.03,0.05,0.11,0.12,0.61,0.01,0,0
81,1302020,"KURNOOL","KOSIGI","Pallipadu",77.311235,15.844938,0,0,0.06,0,0.01,0.3,0,0,0
82,806006,"PRAKASAM","PEDAARAVEEDU","ThangiralaPalle",79.306692,15.843406,0.01,0.01,0.02,0.12,0.19,1.24,0,0,0
83,1307015,"KURNOOL","KURNOOL","Gondiparla",78.071992,15.836684,0,0,0,1.19,0.02,0.52,0,0,0
84,1301013,"KURNOOL","KOWTHALAM","Mallanahatti",77.180339,15.831734,0,0,0.11,0.01,0.07,0.03,0,0,0
85,1302022,"KURNOOL","KOSIGI","Chintakunta",77.280503,15.840529,0,0,0.06,0,0.01,0.3,0,0,0
86,1307010,"KURNOOL","KURNOOL","Mamidalapadu",78.006022,15.842354,0,0.03,0.23,0.26,0.09,0.28,0,0,0
87,804014,"PRAKASAM","KURICHEDU","GangadonaKonda",79.526818,15.857683,0,0.03,0.05,0.11,0.12,0.61,0.01,0,0
88,804016,"PRAKASAM","KURICHEDU","Alavalapadu",79.574367,15.853753,0.03,0.08,0,0.54,0.15,0.2,0.04,0,0
89,1301014,"KURNOOL","KOWTHALAM","Chirtapalle",77.164225,15.827028,0,0,0.11,0.01,0.07,0.03,0,0,0
90,1306004,"KURNOOL","GUDURKURNOOL","Mallapuram",77.808506,15.834945,0,0,1.33,0.6,0.0999999999999999,0.0300000000000002,0,0,0
91,806010,"PRAKASAM","PEDAARAVEEDU","Pragallapadu",79.241946,15.853006,0,0.08,0.04,0.16,0.03,1.14,0.01,0.04,0
92,813009,"PRAKASAM","DARSI","Devavaram",79.697216,15.855178,0.16,0.15,0.05,0.56,0,0.12,0.03,0,0
93,814007,"PRAKASAM","MUNDLAMURU","Vemulabanda",79.792682,15.864356,0.18,0.38,0,0.57,0,0.91,0.04,0,0.00999999999999979
94,1307002,"KURNOOL","KURNOOL","Remata",77.850308,15.831649,0,0,2.11,0.0300000000000002,0.1,0.0299999999999998,0,0,0
95,825004,"PRAKASAM","INKOLLU","Pavulur",80.168854,15.855691,0.88,1.48,1.7,1.44,0.31,0.83,0.0500000000000007,0.00999999999999979,0.21
96,823005,"PRAKASAM","CHIRALA","GavinivariPalem",80.434473,15.846975,0.17,0.49,0.08,4.76,0,0.0199999999999996,0,0.00999999999999979,0
97,1308008,"KURNOOL","NANDIKOTKUR","Vaddamanu",78.198218,15.844669,0,0,0.02,4.26,0,0.37,0,0,0
98,1303017,"KURNOOL","MANTRALAYAM","SowlaHalli",77.349427,15.837846,0,0,0.06,0,0.01,0.3,0,0,0
99,814008,"PRAKASAM","MUNDLAMURU","Umamaheswarapuram",79.81612,15.856924,0.18,0.38,0,0.57,0,0.91,0.04,0,0.00999999999999979
100,823002,"PRAKASAM","CHIRALA","IpuruPalemRural",80.394723,15.838719,0.17,0.49,0.08,4.76,0,0.0199999999999996,0,0.00999999999999979,0
101,1305010,"KURNOOL","CBELAGAL","Kambadahal",77.625718,15.829126,0,0,0.47,0.21,0.7,0.82,0,0,0
102,804017,"PRAKASAM","KURICHEDU","Bodanampadu",79.613146,15.844473,0.06,0.28,0,0.37,0.11,0.33,0.04,0,0
103,826003,"PRAKASAM","JANAKAVARAMPANGULU","Bytamanjulur",80.053078,15.860049,0.21,0.83,0.2,0.39,0.33,0.93,0.04,0,0.0599999999999996
104,1306003,"KURNOOL","GUDURKURNOOL","Munagala",77.788504,15.828891,0,0,1.33,0.6,0.0999999999999999,0.0300000000000002,0,0,0
105,890903,"PRAKASAM","PEDAARAVEEDU","Forest2",79.254261,15.840844,0.01,0.01,0.02,0.12,0.19,1.24,0,0,0
106,806011,"PRAKASAM","PEDAARAVEEDU","Gobburu",79.268763,15.83532,0.01,0.01,0.02,0.12,0.19,1.24,0,0,0
107,1307017,"KURNOOL","KURNOOL","Pudur",78.143665,15.829749,0,0,0,1.19,0.02,0.52,0,0,0
108,1315002,"KURNOOL","JUPADUBUNGALOW","Tartur",78.31535,15.838149,0,0.01,0.22,5.44,0.00999999999999979,1.55,0,0,0
109,1301016,"KURNOOL","KOWTHALAM","Madire",77.114729,15.834535,0,0,5.39,0.0100000000000007,0,0,0,0,0
110,1302021,"KURNOOL","KOSIGI","Kalavalagundu",77.305947,15.833925,0,0,0.06,0,0.01,0.3,0,0,0
111,1314007,"KURNOOL","PAMULAPADU","Pamulapadu1",78.498923,15.830922,0,0,0.81,0.89,0.05,0.13,0,0,0
112,1303018,"KURNOOL","MANTRALAYAM","Malapalle",77.339749,15.823725,0,0,0.06,0,0.01,0.3,0,0,0
113,804015,"PRAKASAM","KURICHEDU","WestGangavaram",79.552664,15.819947,0.06,0.28,0,0.37,0.11,0.33,0.04,0,0
114,1390901,"KURNOOL","KURNOOL","Roja",78.033758,15.84484,0,0.03,0.23,0.26,0.09,0.28,0,0,0
115,1307005,"KURNOOL","KURNOOL","Ulchala",77.915586,15.819836,0,0,2.11,0.0300000000000002,0.1,0.0299999999999998,0,0,0
116,822005,"PRAKASAM","KARAMCHEDU","Kesavarappadu",80.246146,15.858897,0.88,1.48,1.7,1.44,0.31,0.83,0.0500000000000007,0.00999999999999979,0.21
117,1301015,"KURNOOL","KOWTHALAM","Sulakeri",77.123858,15.823858,0,0,5.39,0.0100000000000007,0,0,0,0,0
118,805016,"PRAKASAM","DONAKONDA","KotcherlaKota",79.349078,15.825575,0.01,0.01,0.02,0.12,0.19,1.24,0,0,0
119,814012,"PRAKASAM","MUNDLAMURU","KhambhamPaduEast",79.92878,15.851071,0.41,0.66,0.04,1.11,0,0.54,0.0700000000000003,0.02,0.04
120,1315008,"KURNOOL","JUPADUBUNGALOW","Tarigopula",78.4254,15.83338,0,0.04,0.2,0.8,0.13,0.47,0,0,0
121,813008,"PRAKASAM","DARSI","PothaVaram",79.668832,15.849953,0.3,0.16,0.18,0.26,0.0499999999999999,0.37,0.02,0,0
122,1321005,"KURNOOL","YEMMIGANUR","Tsallakudlur",77.54292,15.824405,0,0,0.15,0.14,0.63,0.34,0,0,0
123,814009,"PRAKASAM","MUNDLAMURU","Thammaluru",79.835954,15.840652,0.16,0.13,0.83,0.37,0.01,0.75,0.0499999999999998,0,0
124,1322003,"KURNOOL","PEDDAKADUBUR","Basaladoddi",77.289518,15.817978,0,0,0.06,0,0.01,0.3,0,0,0
125,1301020,"KURNOOL","KOWTHALAM","Lingaladinne",77.082671,15.824303,0,0,5.39,0.0100000000000007,0,0,0,0,0
126,1390902,"KURNOOL","KURNOOL","KurnoolRural",78.033357,15.832907,0,0.03,0.23,0.26,0.09,0.28,0,0,0
127,1314005,"KURNOOL","PAMULAPADU","Kambalapalle",78.501724,15.839774,0,0,0.81,0.89,0.05,0.13,0,0,0
128,1321006,"KURNOOL","YEMMIGANUR","Divamdinne",77.581681,15.826179,0,0,0.47,0.21,0.7,0.82,0,0,0
129,805009,"PRAKASAM","DONAKONDA","Yerrabalem1",79.51199,15.839241,0.03,0.04,0.03,0.17,0.14,0.65,0.02,0,0
130,890904,"PRAKASAM","CHIRALA","Perala",80.357931,15.843271,0.17,0.49,0.08,4.76,0,0.0199999999999996,0,0.00999999999999979,0
131,816010,"PRAKASAM","ADDANKI","Bommanampadu",80.015406,15.841339,0.64,0.3,0.35,0.0900000000000001,0.22,0.28,0.0100000000000002,0,0
132,826004,"PRAKASAM","JANAKAVARAMPANGULU","Muppavaram",80.04282,15.841643,0.64,0.3,0.35,0.0900000000000001,0.22,0.28,0.0100000000000002,0,0
133,826007,"PRAKASAM","JANAKAVARAMPANGULU","Budavada",80.134745,15.840845,0.48,0.62,0.9,0.44,0,0.51,0.0500000000000003,0,0.12
134,814014,"PRAKASAM","MUNDLAMURU","Peddaravipadu",79.857509,15.828913,0.31,0.44,0.38,0.39,0,1.33,0.0100000000000002,0,0
135,890905,"PRAKASAM","PEDAARAVEEDU","Forest3",79.210704,15.848387,0,0.02,0.05,0.53,0.09,0.97,0,0.02,0
136,816011,"PRAKASAM","ADDANKI","AddankiPT",79.996691,15.801834,0.64,0.3,0.35,0.0900000000000001,0.22,0.28,0.0100000000000002,0,0
137,1322007,"KURNOOL","PEDDAKADUBUR","Kambaladinne",77.363985,15.794919,0,0,0.28,0,0.27,1.07,0,0,0
138,1302028,"KURNOOL","KOSIGI","Gowdegallu",77.217194,15.819593,0,0,0.11,0.01,0.07,0.03,0,0,0
139,1311009,"KURNOOL","ATMAKURKURNOOL","Nallakalva",78.586003,15.83096,0,0.04,1.42,3.13,0.11,0.22,0,0,0
140,1390903,"KURNOOL","KURNOOL","KurnoolMCorp.",78.050191,15.828149,0,0,0,1.19,0.02,0.52,0,0,0
141,822007,"PRAKASAM","KARAMCHEDU","KodavalivariPalem",80.265477,15.826242,0.45,1.05,0.02,2.57,0,0.00999999999999979,0.0300000000000002,0.00999999999999979,0
142,1301024,"KURNOOL","KOWTHALAM","Urukunda",77.166085,15.806813,0,0,0.11,0.01,0.07,0.03,0,0,0
143,1318003,"KURNOOL","KALLUR","Peddapadu",77.968116,15.817779,0,0.03,0.23,0.26,0.09,0.28,0,0,0
144,1301021,"KURNOOL","KOWTHALAM","Agasaladinne",77.08686,15.812913,0,0,5.39,0.0100000000000007,0,0,0,0,0
145,825005,"PRAKASAM","INKOLLU","Inkollu1",80.196214,15.825137,0.34,1.3,0.22,1.14,0,0,0.0699999999999998,0,0
146,1302027,"KURNOOL","KOSIGI","Zumaladinne",77.197697,15.814139,0,0,0.11,0.01,0.07,0.03,0,0,0
147,805008,"PRAKASAM","DONAKONDA","VeeraVenkataPuram",79.490466,15.845387,0.03,0.04,0.03,0.17,0.14,0.65,0.02,0,0
148,805017,"PRAKASAM","DONAKONDA","Siddayapalem",79.327674,15.829806,0.01,0.01,0.02,0.12,0.19,1.24,0,0,0
149,1303019,"KURNOOL","MANTRALAYAM","Paramandoddi",77.315947,15.817848,0,0,0.06,0,0.01,0.3,0,0,0
150,814016,"PRAKASAM","MUNDLAMURU","Chintalapudi1",79.787291,15.839199,0.16,0.13,0.83,0.37,0.01,0.75,0.0499999999999998,0,0
151,826006,"PRAKASAM","JANAKAVARAMPANGULU","Kotapadu1",80.100088,15.84409,0.48,0.62,0.9,0.44,0,0.51,0.0500000000000003,0,0.12
152,1307016,"KURNOOL","KURNOOL","Devamada",78.106326,15.829164,0,0,0,1.19,0.02,0.52,0,0,0
153,813007,"PRAKASAM","DARSI","ThanamChinthala",79.652996,15.829331,0.3,0.16,0.18,0.26,0.0499999999999999,0.37,0.02,0,0
154,823004,"PRAKASAM","CHIRALA","ChiralaRural",80.326517,15.825549,0.45,1.05,0.02,2.57,0,0.00999999999999979,0.0300000000000002,0.00999999999999979,0
155,1314006,"KURNOOL","PAMULAPADU","Bhanumukkala",78.540222,15.814239,0,0,0.81,0.89,0.05,0.13,0,0,0
156,1390904,"KURNOOL","KALLUR","KALLUR1",78.016752,15.810387,0,0.03,0.23,0.26,0.09,0.28,0,0,0
157,806013,"PRAKASAM","PEDAARAVEEDU","PedaAraveedu",79.211289,15.822061,0,0.02,0.05,0.53,0.09,0.97,0,0.02,0
158,814013,"PRAKASAM","MUNDLAMURU","NuzellaPalle",79.899771,15.834039,0.31,0.44,0.38,0.39,0,1.33,0.0100000000000002,0,0
159,1315010,"KURNOOL","JUPADUBUNGALOW","Parumanchala1",78.388642,15.795062,0,0.04,0.2,0.8,0.13,0.47,0,0,0
160,816008,"PRAKASAM","ADDANKI","Gopalapuram1",79.956213,15.844588,0.64,0.3,0.35,0.0900000000000001,0.22,0.28,0.0100000000000002,0,0
161,1308010,"KURNOOL","NANDIKOTKUR","Bollavaram1",78.242523,15.829542,0,0,0.02,4.26,0,0.37,0,0,0
162,1315009,"KURNOOL","JUPADUBUNGALOW","Lingapuram",78.389204,15.824712,0,0.04,0.2,0.8,0.13,0.47,0,0,0
163,1321004,"KURNOOL","YEMMIGANUR","Soganur",77.513432,15.811429,0,0,0.15,0.14,0.63,0.34,0,0,0
164,1322001,"KURNOOL","PEDDAKADUBUR","Peekalabetta",77.241313,15.81206,0,0,0.11,0.01,0.07,0.03,0,0,0
165,806015,"PRAKASAM","PEDAARAVEEDU","Kalanuthala",79.123596,15.808957,0,0.24,0.22,1.73,0.0300000000000002,0.5,0.02,0.00999999999999979,0
166,1316005,"KURNOOL","MIDTHUR","Veepanagandla",78.292936,15.816213,0,0.01,0.22,5.44,0.00999999999999979,1.55,0,0,0
167,1321007,"KURNOOL","YEMMIGANUR","Enigabala",77.603909,15.799426,0,0,0.47,0.21,0.7,0.82,0,0,0
168,1322006,"KURNOOL","PEDDAKADUBUR","Chinnatumbalam",77.316543,15.789939,0,0,0.06,0,0.01,0.3,0,0,0
169,826005,"PRAKASAM","JANAKAVARAMPANGULU","Kondamur",80.065015,15.829324,0.48,0.62,0.9,0.44,0,0.51,0.0500000000000003,0,0.12
170,807012,"PRAKASAM","DORNALA","ChinaManthanala",78.856552,15.837251,0.08,0.45,3.36,1.58,0.0499999999999998,1.11,0.0200000000000005,0.00999999999999979,0
171,1304019,"KURNOOL","NANDAVARAM","Mugathi",77.4744,15.800731,0,0,0.15,0.14,0.63,0.34,0,0,0
172,1322008,"KURNOOL","PEDDAKADUBUR","Jalvadi",77.38744,15.80225,0,0,0.28,0,0.27,1.07,0,0,0
173,1301023,"KURNOOL","KOWTHALAM","Bantakunta",77.129633,15.80481,0,0,5.39,0.0100000000000007,0,0,0,0,0
174,1322004,"KURNOOL","PEDDAKADUBUR","Hulikanvi",77.270902,15.799537,0,0,0.06,0,0.01,0.3,0,0,0
175,1321008,"KURNOOL","YEMMIGANUR","Garladinne1",77.574281,15.812121,0,0,0.47,0.21,0.7,0.82,0,0,0
176,805014,"PRAKASAM","DONAKONDA","Bhumanapalle",79.417003,15.826267,0.01,0.15,0.16,0.04,0.11,0.76,0.01,0,0
177,1308012,"KURNOOL","NANDIKOTKUR","Brahmanakotkur1",78.183447,15.811172,0,0,0.02,4.26,0,0.37,0,0,0
178,805010,"PRAKASAM","DONAKONDA","Vabbapuram",79.503078,15.829578,0.03,0.04,0.03,0.17,0.14,0.65,0.02,0,0
179,814017,"PRAKASAM","MUNDLAMURU","KellamPalle",79.722609,15.82183,0.3,0.16,0.18,0.26,0.0499999999999999,0.37,0.02,0,0
180,806016,"PRAKASAM","PEDAARAVEEDU","Devarajugattu",79.245874,15.800912,0,0.02,0.05,0.53,0.09,0.97,0,0.02,0
181,1322002,"KURNOOL","PEDDAKADUBUR","Gavigatlu",77.218631,15.797981,0,0,0.11,0.01,0.07,0.03,0,0,0
182,1303020,"KURNOOL","MANTRALAYAM","Singarajanahalli",77.341388,15.806321,0,0,0.06,0,0.01,0.3,0,0,0
183,1322009,"KURNOOL","PEDDAKADUBUR","Kambadahal1",77.410904,15.800809,0,0,0.28,0,0.27,1.07,0,0,0
184,805015,"PRAKASAM","DONAKONDA","MallamPeta",79.371786,15.815091,0.01,0.15,0.16,0.04,0.11,0.76,0.01,0,0
185,814011,"PRAKASAM","MUNDLAMURU","BhatlaPalle",79.931598,15.835424,0.31,0.44,0.38,0.39,0,1.33,0.0100000000000002,0,0
186,1308011,"KURNOOL","NANDIKOTKUR","Damagatla",78.232955,15.81157,0,0,0.02,4.26,0,0.37,0,0,0
187,1304018,"KURNOOL","NANDAVARAM","Dharmapuram",77.456834,15.807937,0,0,0.15,0.14,0.63,0.34,0,0,0
188,1306001,"KURNOOL","GUDURKURNOOL","Julakallu",77.769425,15.807661,0,0,1.33,0.6,0.0999999999999999,0.0300000000000002,0,0,0
189,813002,"PRAKASAM","DARSI","AbbayaPalem",79.596889,15.828731,0.06,0.28,0,0.37,0.11,0.33,0.04,0,0
190,1301022,"KURNOOL","KOWTHALAM","Dommaladinne",77.089543,15.80178,0,0,5.39,0.0100000000000007,0,0,0,0,0
191,1321010,"KURNOOL","YEMMIGANUR","K.Thimmapuram",77.540852,15.804372,0,0,0.15,0.14,0.63,0.34,0,0,0
192,813010,"PRAKASAM","DARSI","ThimmayaPalem",79.67915,15.822582,0.3,0.16,0.18,0.26,0.0499999999999999,0.37,0.02,0,0
193,1305008,"KURNOOL","CBELAGAL","Burandoddi",77.683935,15.794377,0,0,0.36,0.2,0.07,0.1,0,0,0
194,809010,"PRAKASAM","ADDANKI","NarasimhaPuram",79.951586,15.832872,0.64,0.3,0.35,0.0900000000000001,0.22,0.28,0.0100000000000002,0,0
195,1306005,"KURNOOL","GUDURKURNOOL","RegadiKhanapuram",77.838469,15.804165,0,0,1.33,0.6,0.0999999999999999,0.0300000000000002,0,0,0
196,1314008,"KURNOOL","PAMULAPADU","Mittakandala",78.469083,15.801321,0,0,0.81,0.89,0.05,0.13,0,0,0
197,1304006,"KURNOOL","KURNOOL","Joharapuram",78.063482,15.803339,0,0,0,1.19,0.02,0.52,0,0,0
198,1322005,"KURNOOL","PEDDAKADUBUR","Bapaladoddi",77.243943,15.796965,0,0,0.11,0.01,0.07,0.03,0,0,0
199,814025,"PRAKASAM","MUNDLAMURU","Vempadu1",79.867283,15.808801,0.31,0.44,0.38,0.39,0,1.33,0.0100000000000002,0,0
200,805013,"PRAKASAM","DONAKONDA","RagamakkaPalle",79.432998,15.812914,0.01,0.15,0.16,0.04,0.11,0.76,0.01,0,0
201,805012,"PRAKASAM","DONAKONDA","IndlaCheruvu",79.460912,15.810517,0.03,0.04,0.03,0.17,0.14,0.65,0.02,0,0
202,1316007,"KURNOOL","MIDTHUR","Thimmapuram1",78.349467,15.795234,0,0.01,0.22,5.44,0.00999999999999979,1.55,0,0,0
203,846001,"PRAKASAM","CHINAGANJAM","Santharavuru",80.253739,15.806282,0.45,1.05,0.02,2.57,0,0.00999999999999979,0.0300000000000002,0.00999999999999979,0
204,1307025,"KURNOOL","KURNOOL","Rudravaram1",78.09761,15.784768,0,0,0,1.19,0.02,0.52,0,0,0
205,814015,"PRAKASAM","MUNDLAMURU","NadimpallivariKhandrika",79.799176,15.82004,0.16,0.13,0.83,0.37,0.01,0.75,0.0499999999999998,0,0
206,1301028,"KURNOOL","KOWTHALAM","Veerladinne",77.103301,15.794828,0,0,5.39,0.0100000000000007,0,0,0,0,0
207,805011,"PRAKASAM","DONAKONDA","NarasimhanayuniPalem",79.487775,15.819606,0.03,0.04,0.03,0.17,0.14,0.65,0.02,0,0
208,806014,"PRAKASAM","PEDAARAVEEDU","Sunkesula1",79.17232,15.803051,0,0.02,0.05,0.53,0.09,0.97,0,0.02,0
209,1301025,"KURNOOL","KOWTHALAM","Kamavaram",77.191091,15.774858,0,0,0.11,0.01,0.07,0.03,0,0,0
210,823000,"PRAKASAM","CHIRALA","ChiralaM",80.351954,15.824397,0.17,0.49,0.08,4.76,0,0.0199999999999996,0,0.00999999999999979,0
211,826008,"PRAKASAM","JANAKAVARAMPANGULU","JanakavaramPanguluru",80.101715,15.814468,0.48,0.62,0.9,0.44,0,0.51,0.0500000000000003,0,0.12
212,1320002,"KURNOOL","GONEGANDLA","Alwala",77.6217,15.772572,0,0,0.47,0.21,0.7,0.82,0,0,0
213,816012,"PRAKASAM","ADDANKI","RamayapalemU",79.939583,15.807951,0.31,0.44,0.38,0.39,0,1.33,0.0100000000000002,0,0
214,805024,"PRAKASAM","DONAKONDA","Gudipadu1",79.522342,15.788161,0.03,0.04,0.03,0.17,0.14,0.65,0.02,0,0
215,1305007,"KURNOOL","CBELAGAL","Brahmanadoddi",77.736073,15.779216,0,0,0.36,0.2,0.07,0.1,0,0,0
216,813004,"PRAKASAM","DARSI","Chandaluru",79.582758,15.800584,0.06,0.28,0,0.37,0.11,0.33,0.04,0,0
217,1301027,"KURNOOL","KOWTHALAM","Kowthalam1",77.131038,15.767784,0,0,5.39,0.0100000000000007,0,0,0,0,0
218,824005,"PRAKASAM","VETAPALEM","KothaPetaRural",80.370874,15.797395,0.17,0.49,0.08,4.76,0,0.0199999999999996,0,0.00999999999999979,0
219,1306002,"KURNOOL","GUDURKURNOOL","Ponnakallu",77.779622,15.793659,0,0,1.33,0.6,0.0999999999999999,0.0300000000000002,0,0,0
220,1321009,"KURNOOL","YEMMIGANUR","Pesaladinne",77.574315,15.795449,0,0,0.47,0.21,0.7,0.82,0,0,0
221,1306006,"KURNOOL","GUDURKURNOOL","Gudur1",77.799975,15.767978,0,0,1.33,0.6,0.0999999999999999,0.0300000000000002,0,0,0
222,814024,"PRAKASAM","MUNDLAMURU","Mundlamuru1",79.823965,15.802009,0.16,0.13,0.83,0.37,0.01,0.75,0.0499999999999998,0,0
223,826014,"PRAKASAM","JANAKAVARAMPANGULU","Chandalur",80.140624,15.792521,0.48,0.62,0.9,0.44,0,0.51,0.0500000000000003,0,0.12
224,1316006,"KURNOOL","MIDTHUR","Byrapuram",78.326767,15.797479,0,0.01,0.22,5.44,0.00999999999999979,1.55,0,0,0
225,805019,"PRAKASAM","DONAKONDA","Manginapudi1",79.398832,15.797482,0.01,0.15,0.16,0.04,0.11,0.76,0.01,0,0
226,814022,"PRAKASAM","MUNDLAMURU","Chinnavullagallu",79.748225,15.799293,0.3,0.16,0.18,0.26,0.0499999999999999,0.37,0.02,0,0
227,1307018,"KURNOOL","KURNOOL","Gargeyapuram",78.139848,15.779834,0,0,0,1.19,0.02,0.52,0,0,0
228,1301026,"KURNOOL","KOWTHALAM","Echalahal",77.166606,15.786892,0,0,0.11,0.01,0.07,0.03,0,0,0
229,1301029,"KURNOOL","KOWTHALAM","Bapuram",77.089358,15.783357,0,0,5.39,0.0100000000000007,0,0,0,0,0
230,1318002,"KURNOOL","KALLUR","A.Gokulapadu",77.945722,15.793197,0,0,2.11,0.0300000000000002,0.1,0.0299999999999998,0,0,0
231,814021,"PRAKASAM","MUNDLAMURU","Pedavullagallu",79.769587,15.801995,0.16,0.13,0.83,0.37,0.01,0.75,0.0499999999999998,0,0
232,805023,"PRAKASAM","DONAKONDA","PeddannaPalem",79.49914,15.808144,0.03,0.04,0.03,0.17,0.14,0.65,0.02,0,0
233,1318001,"KURNOOL","KALLUR","Parla",77.892751,15.776523,0,0,2.11,0.0300000000000002,0.1,0.0299999999999998,0,0,0
234,1321003,"KURNOOL","YEMMIGANUR","Kalugotla1",77.516217,15.777079,0,0,0.15,0.14,0.63,0.34,0,0,0
235,1316001,"KURNOOL","MIDTHUR","Nagalooty",78.227233,15.790576,0,0,0.02,4.26,0,0.37,0,0,0
236,825006,"PRAKASAM","INKOLLU","GangaVaram",80.163166,15.814639,0.34,1.3,0.22,1.14,0,0,0.0699999999999998,0,0
237,813001,"PRAKASAM","DARSI","Bandellapaya",79.612195,15.794627,0.06,0.28,0,0.37,0.11,0.33,0.04,0,0
238,809004,"PRAKASAM","MARKAPUR","Idupur",79.299235,15.788855,0.01,0.01,0.02,0.12,0.19,1.24,0,0,0
239,1390906,"KURNOOL","YEMMIGANUR","Yemmiganur1",77.479936,15.770975,0,0,0.15,0.14,0.63,0.34,0,0,0
240,813006,"PRAKASAM","DARSI","VenkatachalamPalle",79.633918,15.810884,0.06,0.28,0,0.37,0.11,0.33,0.04,0,0
241,808001,"PRAKASAM","ARDHAVEEDU","Velagalapaya",78.955619,15.782028,0.01,0.4,1.42,1.56,0.00999999999999979,0.42,0.0600000000000001,0.0100000000000002,0
242,1316004,"KURNOOL","MIDTHUR","Midthur1",78.274525,15.772631,0,0.01,0.22,5.44,0.00999999999999979,1.55,0,0,0
243,826010,"PRAKASAM","JANAKAVARAMPANGULU","Kasyapuram",80.030299,15.809055,0.64,0.3,0.35,0.0900000000000001,0.22,0.28,0.0100000000000002,0,0
244,814027,"PRAKASAM","MUNDLAMURU","Sankarapuram",79.902559,15.808434,0.31,0.44,0.38,0.39,0,1.33,0.0100000000000002,0,0
245,1321011,"KURNOOL","YEMMIGANUR","Parlapalle",77.556217,15.774321,0,0,0.47,0.21,0.7,0.82,0,0,0
246,1301030,"KURNOOL","KOWTHALAM","Rowdur",77.071671,15.752732,0,0,5.39,0.0100000000000007,0,0,0,0,0
247,890906,"PRAKASAM","MARKAPUR","Forest4",79.209887,15.767906,0,0.02,0.05,0.53,0.09,0.97,0,0.02,0
248,895901,"PRAKASAM","ADDANKI","AddankiNorthU",79.972131,15.812522,0.64,0.3,0.35,0.0900000000000001,0.22,0.28,0.0100000000000002,0,0
249,814026,"PRAKASAM","MUNDLAMURU","Polavaram1",79.875996,15.795892,0.31,0.44,0.38,0.39,0,1.33,0.0100000000000002,0,0
250,814023,"PRAKASAM","MUNDLAMURU","Pasupugallu",79.790377,15.797182,0.16,0.13,0.83,0.37,0.01,0.75,0.0499999999999998,0,0
251,826009,"PRAKASAM","JANAKAVARAMPANGULU","Reningavaram",80.049118,15.806442,0.64,0.3,0.35,0.0900000000000001,0.22,0.28,0.0100000000000002,0,0
252,1323014,"KURNOOL","ADONI","PeddaThumbalam",77.248511,15.764927,0,0,0.11,0.01,0.07,0.03,0,0,0
253,1322010,"KURNOOL","PEDDAKADUBUR","HissaraMurvari",77.415921,15.764127,0,0,0.28,0,0.27,1.07,0,0,0
254,1307021,"KURNOOL","KURNOOL","Pasupula1",78.073995,15.780922,0,0,0,1.19,0.02,0.52,0,0,0
255,1318005,"KURNOOL","KALLUR","Pandipadu",78.008292,15.790716,0,0.03,0.23,0.26,0.09,0.28,0,0,0
256,813011,"PRAKASAM","DARSI","Darsi1",79.676677,15.775791,0.3,0.16,0.18,0.26,0.0499999999999999,0.37,0.02,0,0
257,1307019,"KURNOOL","KURNOOL","Diguvapadu",78.180621,15.782299,0,0,0.02,4.26,0,0.37,0,0,0
258,806012,"PRAKASAM","PEDAARAVEEDU","S.KothaPalle",79.241995,15.806835,0,0.02,0.05,0.53,0.09,0.97,0,0.02,0
259,1318006,"KURNOOL","KALLUR","Laxmipuram",77.985577,15.759232,0,0.03,0.23,0.26,0.09,0.28,0,0,0
260,1318007,"KURNOOL","KALLUR","Salkapuram",77.956505,15.777061,0,0.03,0.23,0.26,0.09,0.28,0,0,0
261,824001,"PRAKASAM","VETAPALEM","Vetapalem1",80.302711,15.788134,0.45,1.05,0.02,2.57,0,0.00999999999999979,0.0300000000000002,0.00999999999999979,0
262,826011,"PRAKASAM","JANAKAVARAMPANGULU","Alavalapadu1",80.064837,15.78951,0.48,0.62,0.9,0.44,0,0.51,0.0500000000000003,0,0.12
263,814018,"PRAKASAM","MUNDLAMURU","BasavaPuram",79.71287,15.801226,0.3,0.16,0.18,0.26,0.0499999999999999,0.37,0.02,0,0
264,814019,"PRAKASAM","MUNDLAMURU","Brundavanam",79.687545,15.79045,0.3,0.16,0.18,0.26,0.0499999999999999,0.37,0.02,0,0
265,1322013,"KURNOOL","PEDDAKADUBUR","Muchigeri",77.300824,15.767574,0,0,0.06,0,0.01,0.3,0,0,0
266,1314009,"KURNOOL","PAMULAPADU","Vempenta",78.518422,15.775165,0,0,0.81,0.89,0.05,0.13,0,0,0
267,816015,"PRAKASAM","ADDANKI","AddankiSouthU",79.971153,15.804479,0.64,0.3,0.35,0.0900000000000001,0.22,0.28,0.0100000000000002,0,0
268,825008,"PRAKASAM","INKOLLU","Bhimavaram1",80.211824,15.783483,0.34,1.3,0.22,1.14,0,0,0.0699999999999998,0,0
269,1307023,"KURNOOL","KURNOOL","Dinnedevarapadu1",78.034817,15.76846,0,0.03,0.23,0.26,0.09,0.28,0,0,0
270,813005,"PRAKASAM","DARSI","Chalivendra",79.633136,15.791928,0.06,0.28,0,0.37,0.11,0.33,0.04,0,0
271,1320001,"KURNOOL","GONEGANDLA","PeddaMarriveedu",77.582034,15.75927,0,0,0.47,0.21,0.7,0.82,0,0,0
272,805022,"PRAKASAM","DONAKONDA","LakshmiNarayanaPuram",79.482861,15.787315,0.03,0.04,0.03,0.17,0.14,0.65,0.02,0,0
273,1315011,"KURNOOL","JUPADUBUNGALOW","Thudicherla",78.442258,15.774495,0,0.04,0.2,0.8,0.13,0.47,0,0,0
274,1316008,"KURNOOL","MIDTHUR","Cherakucherla",78.322279,15.76949,0,0.01,0.22,5.44,0.00999999999999979,1.55,0,0,0
275,845017,"PRAKASAM","NAGULUPPALAPADU","Thimmasamudram",80.24576,15.780671,0.34,1.3,0.22,1.14,0,0,0.0699999999999998,0,0
276,1322012,"KURNOOL","PEDDAKADUBUR","Kallukunta",77.327994,15.75885,0,0,0.06,0,0.01,0.3,0,0,0
277,825007,"PRAKASAM","INKOLLU","Koniki",80.181696,15.782431,0.34,1.3,0.22,1.14,0,0,0.0699999999999998,0,0
278,890907,"PRAKASAM","GIDDALURU","Forest5",78.822277,15.399135,0.26,0.1,3.08,0.45,0,0.18,0,0,0
279,1306008,"KURNOOL","GUDURKURNOOL","Gudipadu2",77.848846,15.759482,0,0,1.33,0.6,0.0999999999999999,0.0300000000000002,0,0,0
280,1322011,"KURNOOL","PEDDAKADUBUR","PeddaKadubur1",77.356326,15.740405,0,0.03,0.65,0.0099999999999999,0.1,3.78,0,0,0
281,826012,"PRAKASAM","JANAKAVARAMPANGULU","ThurpuThakkellaPadu",80.084493,15.784841,0.48,0.62,0.9,0.44,0,0.51,0.0500000000000003,0,0.12
282,1320003,"KURNOOL","GONEGANDLA","PeddaNelatur",77.667972,15.751353,0,0,0.36,0.2,0.07,0.1,0,0,0
283,1381001,"KURNOOL","YEMMIGANUR","YemmiganurM",77.480039,15.768969,0,0,0.15,0.14,0.63,0.34,0,0,0
284,805018,"PRAKASAM","DONAKONDA","Ananthavaram1",79.36213,15.779457,0.01,0.15,0.16,0.04,0.11,0.76,0.01,0,0
285,814028,"PRAKASAM","MUNDLAMURU","Avisanavaripalem",79.904353,15.789974,0.31,0.44,0.38,0.39,0,1.33,0.0100000000000002,0,0
286,809001,"PRAKASAM","MARKAPUR","JammanaPalle",79.199674,15.780173,0,0.02,0.05,0.53,0.09,0.97,0,0.02,0
287,1319001,"KURNOOL","KODUMUR","Pulakurthy",77.709792,15.742056,0,0,0.14,0.3,0,3.36,0,0,0
288,824004,"PRAKASAM","VETAPALEM","NayaniPalliRural",80.33372,15.769634,0.45,1.05,0.02,2.57,0,0.00999999999999979,0.0300000000000002,0.00999999999999979,0
289,805020,"PRAKASAM","DONAKONDA","PochamakkaPalle",79.428151,15.785171,0.01,0.15,0.16,0.04,0.11,0.76,0.01,0,0
290,1316003,"KURNOOL","MIDTHUR","Kadumur",78.227641,15.763602,0,0,0.02,4.26,0,0.37,0,0,0
291,1321001,"KURNOOL","YEMMIGANUR","Sardarpuram",77.448179,15.764589,0,0,0.28,0,0.27,1.07,0,0,0
292,1307020,"KURNOOL","KURNOOL","Noothanapalle",78.096237,15.769526,0,0,0,1.19,0.02,0.52,0,0,0
293,809015,"PRAKASAM","MARKAPUR","Kolabhimunipadu",79.18284,15.763369,0,0.02,0.05,0.53,0.09,0.97,0,0.02,0
294,1307024,"KURNOOL","KURNOOL","B.Thandrapadu",78.059094,15.752542,0,0,0,1.19,0.02,0.52,0,0,0
295,826013,"PRAKASAM","JANAKAVARAMPANGULU","ThurpuKopperaPadu",80.103354,15.779232,0.48,0.62,0.9,0.44,0,0.51,0.0500000000000003,0,0.12
296,814020,"PRAKASAM","MUNDLAMURU","Pulipadu",79.710334,15.784292,0.3,0.16,0.18,0.26,0.0499999999999999,0.37,0.02,0,0
297,1322014,"KURNOOL","PEDDAKADUBUR","Nowlekal",77.280764,15.737529,0,0,2.97,0.00999999999999979,0.0600000000000001,1.21,0,0,0
298,805021,"PRAKASAM","DONAKONDA","PadamatiVenkataPuram",79.457374,15.776713,0.03,0.04,0.03,0.17,0.14,0.65,0.02,0,0
299,1323888,"KURNOOL","VELGODE","Forest6",78.705013,15.724935,0.02,0.33,2.19,0.21,0,0.15,0,0,0
300,1316002,"KURNOOL","MIDTHUR","Masapeta",78.187462,15.759089,0,0,0.02,4.26,0,0.37,0,0,0
301,809006,"PRAKASAM","MARKAPUR","GajjalaKonda",79.397307,15.757964,0.01,0.15,0.16,0.04,0.11,0.76,0.01,0,0
302,1314010,"KURNOOL","PAMULAPADU","Maddur1",78.486458,15.750469,0,0,0.81,0.89,0.05,0.13,0,0,0
303,816014,"PRAKASAM","ADDANKI","Kotikalapudi",79.94884,15.773547,0.31,0.44,0.38,0.39,0,1.33,0.0100000000000002,0,0
304,827005,"PRAKASAM","KORISAPADU","Pichikalagudipadu",80.045974,15.775886,0.64,0.3,0.35,0.0900000000000001,0.22,0.28,0.0100000000000002,0,0
305,809002,"PRAKASAM","MARKAPUR","NikaramPalle",79.228507,15.772791,0,0.02,0.05,0.53,0.09,0.97,0,0.02,0
306,1301034,"KURNOOL","KOWTHALAM","Yerigiri",77.196664,15.741184,0,0,3.47,0.00999999999999979,0.0100000000000002,0.0299999999999998,0,0,0
307,1322015,"KURNOOL","PEDDAKADUBUR","Myakadona",77.299608,15.737709,0,0,2.97,0.00999999999999979,0.0600000000000001,1.21,0,0,0
308,1321013,"KURNOOL","YEMMIGANUR","Kadimetla",77.530778,15.735522,0,0,0.24,0.13,0.13,2.53,0,0,0
309,1318008,"KURNOOL","KALLUR","K.Markapuram",77.928095,15.749917,0,0,1.25,0.03,0.0600000000000001,0.22,0,0,0
310,816013,"PRAKASAM","ADDANKI","Kunkupadu1",79.92361,15.768614,0.31,0.44,0.38,0.39,0,1.33,0.0100000000000002,0,0
311,813013,"PRAKASAM","DARSI","LankojanaPalle",79.651219,15.761419,0.3,0.16,0.18,0.26,0.0499999999999999,0.37,0.02,0,0
312,815003,"PRAKASAM","THALLUR","Vithalapuram",79.864233,15.768723,0.31,0.44,0.38,0.39,0,1.33,0.0100000000000002,0,0
313,813014,"PRAKASAM","DARSI","JammigumpalaK.S.Palem",79.572429,15.768662,0.06,0.28,0,0.37,0.11,0.33,0.04,0,0
314,809009,"PRAKASAM","MARKAPUR","MarkapurRural",79.283038,15.740407,0,0.31,0.06,0.24,0.0700000000000001,0.66,0.02,0,0
315,815002,"PRAKASAM","THALLUR","Mannepalle",79.8368,15.757339,0.16,0.13,0.83,0.37,0.01,0.75,0.0499999999999998,0,0
316,813025,"PRAKASAM","DARSI","CheruvuKommaPalem",79.775275,15.770083,0.16,0.13,0.83,0.37,0.01,0.75,0.0499999999999998,0,0
317,1306010,"KURNOOL","GUDURKURNOOL","Kuruvanagalapuram",77.900714,15.751334,0,0,2.11,0.0300000000000002,0.1,0.0299999999999998,0,0,0
318,813027,"PRAKASAM","DARSI","PothaKamuru",79.765239,15.727802,0.3,0.74,1.31,0.23,0.0600000000000001,0.16,0.0800000000000001,0.0100000000000002,0
319,809003,"PRAKASAM","MARKAPUR","PedaNagulavaram",79.256812,15.765567,0.01,0.01,0.02,0.12,0.19,1.24,0,0,0
320,815005,"PRAKASAM","THALLUR","Tallur",79.882653,15.741139,0.65,0.67,0.5,0.26,0.17,0.11,0,0,0
321,809005,"PRAKASAM","MARKAPUR","PedaYachavaram",79.329709,15.749087,0,0.31,0.06,0.24,0.0700000000000001,0.66,0.02,0,0
322,808002,"PRAKASAM","ARDHAVEEDU","Gannepalle",78.99049,15.726612,0,0.35,0.91,0.85,0.36,0.33,0.04,0.0100000000000002,0
323,813023,"PRAKASAM","DARSI","EastVeerayaPalem",79.727875,15.752946,0.3,0.16,0.18,0.26,0.0499999999999999,0.37,0.02,0,0
324,815004,"PRAKASAM","THALLUR","Malkapuram",79.902345,15.758572,0.31,0.44,0.38,0.39,0,1.33,0.0100000000000002,0,0
325,1321014,"KURNOOL","YEMMIGANUR","Gudikal",77.47364,15.740915,0,0,0.24,0.13,0.13,2.53,0,0,0
326,813024,"PRAKASAM","DARSI","MohiddinPuram",79.750506,15.760093,0.16,0.13,0.83,0.37,0.01,0.75,0.0499999999999998,0,0
327,1301031,"KURNOOL","KOWTHALAM","Upparahal",77.103817,15.729906,0,0,4.02,0,0.0300000000000002,0,0,0,0
328,1316010,"KURNOOL","MIDTHUR","Rollapadu",78.353398,15.741981,0,0.06,0.4,0.46,0,0.53,0,0,0
329,805028,"PRAKASAM","DONAKONDA","KalavalaPalle",79.435834,15.753614,0.01,0.15,0.16,0.04,0.11,0.76,0.01,0,0
330,846002,"PRAKASAM","CHINAGANJAM","Gonasapudi",80.221438,15.757652,0.34,1.3,0.22,1.14,0,0,0.0699999999999998,0,0
331,1316009,"KURNOOL","MIDTHUR","Sunkesula2",78.313465,15.739169,0,0,0.02,1.21,0,0.53,0,0,0
332,1320004,"KURNOOL","GONEGANDLA","Kulumala",77.627679,15.737612,0,0,0.18,0.12,0.04,4.41,0,0,0
333,805026,"PRAKASAM","DONAKONDA","Vaddipadu",79.493462,15.753136,0.03,0.04,0.03,0.17,0.14,0.65,0.02,0,0
334,1317003,"KURNOOL","ORVAKAL","Kethavaram",78.160772,15.737921,0,0,0.01,2.61,0,0.36,0,0,0
335,824002,"PRAKASAM","VETAPALEM","PandillaPalle",80.276372,15.75858,0.45,1.05,0.02,2.57,0,0.00999999999999979,0.0300000000000002,0.00999999999999979,0
336,1314011,"KURNOOL","PAMULAPADU","Vanala",78.443397,15.74056,0,0.06,0.4,0.46,0,0.53,0,0,0
337,1321012,"KURNOOL","YEMMIGANUR","Ralladoddi",77.565552,15.728735,0,0,0.18,0.12,0.04,4.41,0,0,0
338,1301033,"KURNOOL","KOWTHALAM","Badinehal",77.154571,15.715901,0,0,3.47,0.00999999999999979,0.0100000000000002,0.0299999999999998,0,0,0
339,1323013,"KURNOOL","ADONI","Kuppagal",77.233874,15.731498,0,0,3.47,0.00999999999999979,0.0100000000000002,0.0299999999999998,0,0,0
340,1316011,"KURNOOL","MIDTHUR","Alaganur",78.39306,15.734915,0,0.06,0.4,0.46,0,0.53,0,0,0
341,809016,"PRAKASAM","MARKAPUR","Akkacheruvu",79.1683,15.752623,0,0.02,0.05,0.53,0.09,0.97,0,0.02,0
342,813012,"PRAKASAM","DARSI","BalaPuram",79.629504,15.753052,0.06,0.28,0,0.37,0.11,0.33,0.04,0,0
343,815001,"PRAKASAM","THALLUR","Dosakayalapadu",79.812634,15.745222,0.3,0.74,1.31,0.23,0.0600000000000001,0.16,0.0800000000000001,0.0100000000000002,0
344,1313004,"KURNOOL","VELGODE","Gunthakandala",78.517602,15.746697,0,0.13,0.53,1.1,0.03,0.0600000000000001,0,0,0
345,825009,"PRAKASAM","INKOLLU","Duddukur",80.165322,15.747534,0.17,1,2.97,0.850000000000001,0,0.00999999999999979,0.11,0.00999999999999979,0
346,824003,"PRAKASAM","VETAPALEM","PullariPalem",80.306569,15.74292,0.03,0.28,4.37,2.83,0,0.0200000000000005,0.04,0.0299999999999994,0.0100000000000007
347,1319004,"KURNOOL","KODUMUR","Pyalakurthy",77.826322,15.72533,0,0,3.37,0.14,0.0100000000000002,1.24,0,0,0
348,827006,"PRAKASAM","KORISAPADU","Ravinuthala1",80.085124,15.746008,0.51,0.54,1.58,0.0600000000000001,0,0.32,0.0800000000000001,0,0.12
349,1317002,"KURNOOL","ORVAKAL","Puricherla",78.130952,15.724961,0,0.37,0.01,1.07,0.05,0.2,0,0,0
350,1318011,"KURNOOL","KALLUR","Dupadu1",78.009823,15.739539,0,0,0.07,0.45,0.07,0.04,0,0,0
351,1320005,"KURNOOL","GONEGANDLA","Gonegandla1",77.589488,15.714842,0,0,0.18,0.12,0.04,4.41,0,0,0
352,1322016,"KURNOOL","PEDDAKADUBUR","ChinnaKadubur",77.31755,15.725831,0,0,2.97,0.00999999999999979,0.0600000000000001,1.21,0,0,0
353,1321017,"KURNOOL","YEMMIGANUR","Banavasi1",77.404384,15.726148,0,0.03,0.65,0.0099999999999999,0.1,3.78,0,0,0
354,816016,"PRAKASAM","ADDANKI","ManiKeswaram",79.977506,15.753442,0.64,0.3,0.35,0.0900000000000001,0.22,0.28,0.0100000000000002,0,0
355,845016,"PRAKASAM","NAGULUPPALAPADU","MaddiralaMuppalla",80.198035,15.749338,0.17,1,2.97,0.850000000000001,0,0.00999999999999979,0.11,0.00999999999999979,0
356,809014,"PRAKASAM","MARKAPUR","VemulaKota",79.232845,15.742898,0,0.09,0.34,0.08,0.0599999999999999,0.12,0.01,0.01,0
357,1316015,"KURNOOL","MIDTHUR","Devanur",78.255562,15.723418,0,0,0.02,1.21,0,0.53,0,0,0
358,1321016,"KURNOOL","YEMMIGANUR","Kandanathi",77.454596,15.700254,0,0,0.24,0.13,0.13,2.53,0,0,0
359,1323043,"KURNOOL","ADONI","Basarakodu",77.257679,15.723198,0,0,2.97,0.00999999999999979,0.0600000000000001,1.21,0,0,0
360,826015,"PRAKASAM","JANAKAVARAMPANGULU","NuzendlaPalle",80.132868,15.755667,0.48,0.62,0.9,0.44,0,0.51,0.0500000000000003,0,0.12
361,813016,"PRAKASAM","DARSI","Bandiveligandla",79.572773,15.739713,0.08,0.43,0.02,0.45,0,0.0600000000000001,0.02,0,0
362,1306009,"KURNOOL","GUDURKURNOOL","Penchikalapadu",77.871325,15.729939,0,0,1.25,0.03,0.0600000000000001,0.22,0,0,0
363,827004,"PRAKASAM","KORISAPADU","Korisapadu1",80.045241,15.748985,0.18,0.68,0.56,0.16,0,0.16,0,0,0.01
364,813017,"PRAKASAM","DARSI","YerrobanaPalle",79.608598,15.750365,0.06,0.28,0,0.37,0.11,0.33,0.04,0,0
365,1316016,"KURNOOL","MIDTHUR","Chowtakur1",78.224322,15.716936,0,0,0.01,2.61,0,0.36,0,0,0
366,846004,"PRAKASAM","CHINAGANJAM","Kadavakuduru1",80.249817,15.737458,0.17,1,2.97,0.850000000000001,0,0.00999999999999979,0.11,0.00999999999999979,0
367,1316017,"KURNOOL","MIDTHUR","Bannur1",78.204854,15.734088,0,0,0.01,2.61,0,0.36,0,0,0
368,1306007,"KURNOOL","GUDURKURNOOL","Chanugondla",77.770354,15.720825,0,0,3.37,0.14,0.0100000000000002,1.24,0,0,0
369,1317001,"KURNOOL","ORVAKAL","Nannur1",78.080202,15.714572,0,0.37,0.01,1.07,0.05,0.2,0,0,0
370,813015,"PRAKASAM","DARSI","BukkaPuram",79.554009,15.749785,0.08,0.43,0.02,0.45,0,0.0600000000000001,0.02,0,0
371,1306011,"KURNOOL","GUDURKURNOOL","Budidapadu",77.903269,15.727235,0,0,1.25,0.03,0.0600000000000001,0.22,0,0,0
372,805027,"PRAKASAM","DONAKONDA","Sangapuram",79.468323,15.745562,0.03,0.2,0.00999999999999998,0.66,0,0.15,0,0,0
373,805025,"PRAKASAM","DONAKONDA","Aravallipadu",79.521797,15.74067,0.03,0.2,0.00999999999999998,0.66,0,0.15,0,0,0
374,1318009,"KURNOOL","KALLUR","Bastipadu",77.959574,15.714198,0,0,0.07,0.45,0.07,0.04,0,0,0
375,1313005,"KURNOOL","VELGODE","Velgode1",78.580756,15.715785,0,0.04,0.49,0.44,0.02,0.0700000000000001,0,0,0
376,813019,"PRAKASAM","DARSI","EastVenkataPuram",79.649865,15.747668,0.08,0.43,0.02,0.45,0,0.0600000000000001,0.02,0,0
377,1321015,"KURNOOL","YEMMIGANUR","Kadivella",77.491856,15.687299,0,0,0.24,0.13,0.13,2.53,0,0,0
378,816017,"PRAKASAM","ADDANKI","Nannurupadu",79.944426,15.747688,0.65,0.67,0.5,0.26,0.17,0.11,0,0,0
379,1301035,"KURNOOL","KOWTHALAM","Thovi",77.196772,15.708303,0,0,3.47,0.00999999999999979,0.0100000000000002,0.0299999999999998,0,0,0
380,827002,"PRAKASAM","KORISAPADU","BodduvaniPalem",80.005988,15.720876,0.18,0.68,0.56,0.16,0,0.16,0,0,0.01
381,1318010,"KURNOOL","KALLUR","PeddaTekur",77.997442,15.725101,0,0,0.07,0.45,0.07,0.04,0,0,0
382,1318012,"KURNOOL","KALLUR","Thadakanapalle",78.032597,15.717002,0,0,0.07,0.45,0.07,0.04,0,0,0
383,810006,"PRAKASAM","TARLAPADU","Pothalapadu",79.380852,15.732208,0,0.21,0.02,0.72,0.0900000000000001,1.16,0.02,0.02,0
384,816018,"PRAKASAM","ADDANKI","Modepalle",79.919065,15.724771,0.65,0.67,0.5,0.26,0.17,0.11,0,0,0
385,813022,"PRAKASAM","DARSI","EastChoutapalem",79.69337,15.735565,0.19,0.13,0.28,0.79,0.01,0.28,0.03,0,0
386,1323012,"KURNOOL","ADONI","Pandavagallu",77.237179,15.706783,0,0,3.47,0.00999999999999979,0.0100000000000002,0.0299999999999998,0,0,0
387,1316014,"KURNOOL","MIDTHUR","Chintalapalle",78.285951,15.712628,0,0,0.02,1.21,0,0.53,0,0,0
388,809018,"PRAKASAM","MARKAPUR","Chintakunta1",79.201088,15.721015,0,0.09,0.34,0.08,0.0599999999999999,0.12,0.01,0.01,0
389,1320006,"KURNOOL","GONEGANDLA","HandriKhairawadi",77.65206,15.71337,0,0,0.14,0.3,0,3.36,0,0,0
390,1323018,"KURNOOL","ADONI","Mantriki",77.299668,15.70451,0,0,2.97,0.00999999999999979,0.0600000000000001,1.21,0,0,0
391,814029,"PRAKASAM","MUNDLAMURU","SinganaPalem",79.803564,15.740276,0.3,0.74,1.31,0.23,0.0600000000000001,0.16,0.0800000000000001,0.0100000000000002,0
392,890908,"PRAKASAM","MARKAPUR","MarkapurM",79.269042,15.736484,0,0.31,0.06,0.24,0.0700000000000001,0.66,0.02,0,0
393,813020,"PRAKASAM","DARSI","RamachandraPuram",79.650317,15.728237,0.19,0.13,0.28,0.79,0.01,0.28,0.03,0,0
394,1321018,"KURNOOL","YEMMIGANUR","Malakapuram",77.367215,15.707214,0,0.03,0.65,0.0099999999999999,0.1,3.78,0,0,0
395,1313003,"KURNOOL","VELGODE","Abdullapuram",78.523312,15.72026,0,0.13,0.53,1.1,0.03,0.0600000000000001,0,0,0
396,1323011,"KURNOOL","ADONI","Ganekal1",77.222452,15.692952,0,0,3.47,0.00999999999999979,0.0100000000000002,0.0299999999999998,0,0,0
397,827001,"PRAKASAM","KORISAPADU","Anamanamur",79.975727,15.738734,0.18,0.68,0.56,0.16,0,0.16,0,0,0.01
398,1323019,"KURNOOL","ADONI","Dayyalaguddam",77.328651,15.707006,0,0,2.97,0.00999999999999979,0.0600000000000001,1.21,0,0,0
399,1313001,"KURNOOL","VELGODE","Regadigudur",78.467954,15.714829,0,0.13,0.53,1.1,0.03,0.0600000000000001,0,0,0
400,1301032,"KURNOOL","KOWTHALAM","Kuntanahal",77.10921,15.698455,0,0,4.02,0,0.0300000000000002,0,0,0,0
401,811001,"PRAKASAM","KONAKANAMITLA","GanivaniPadu",79.454072,15.733522,0.03,0.2,0.00999999999999998,0.66,0,0.15,0,0,0
402,827008,"PRAKASAM","KORISAPADU","PamidiPadu",80.108592,15.714714,0.51,0.54,1.58,0.0600000000000001,0,0.32,0.0800000000000001,0,0.12
403,809017,"PRAKASAM","MARKAPUR","Gottipadia",79.147258,15.718782,0,0.42,0.8,0.76,0.0299999999999998,0.24,0,0.02,0
404,1319002,"KURNOOL","KODUMUR","Varkur",77.732588,15.701651,0,0,0.14,0.3,0,3.36,0,0,0
405,813026,"PRAKASAM","DARSI","SeethaSagaram",79.79044,15.738902,0.3,0.74,1.31,0.23,0.0600000000000001,0.16,0.0800000000000001,0.0100000000000002,0
406,1318016,"KURNOOL","KALLUR","Pusulur",77.925021,15.697388,0,0,1.25,0.03,0.0600000000000001,0.22,0,0,0
407,890909,"PRAKASAM","MARKAPUR","Forest7",79.153788,15.712204,0,0.09,0.34,0.08,0.0599999999999999,0.12,0.01,0.01,0
408,813018,"PRAKASAM","DARSI","GaneswaraPuram",79.624676,15.737215,0.08,0.43,0.02,0.45,0,0.0600000000000001,0.02,0,0
409,1323016,"KURNOOL","ADONI","Jalibenchi",77.261685,15.692707,0,0,2.97,0.00999999999999979,0.0600000000000001,1.21,0,0,0
410,811002,"PRAKASAM","KONAKANAMITLA","Vagemadugu",79.472222,15.722547,0.03,0.2,0.00999999999999998,0.66,0,0.15,0,0,0
411,1320013,"KURNOOL","GONEGANDLA","Iranbanda",77.591778,15.68988,0,0,0.18,0.12,0.04,4.41,0,0,0
412,1332004,"KURNOOL","GADIVEMULA","Korrapolur",78.419128,15.709596,0,0.06,0.4,0.46,0,0.53,0,0,0
413,846005,"PRAKASAM","CHINAGANJAM","MotuPalle",80.280364,15.715598,0.03,0.28,4.37,2.83,0,0.0200000000000005,0.04,0.0299999999999994,0.0100000000000007
414,815006,"PRAKASAM","THALLUR","Madhavaram1",79.849315,15.728327,0.3,0.74,1.31,0.23,0.0600000000000001,0.16,0.0800000000000001,0.0100000000000002,0
415,1317004,"KURNOOL","ORVAKAL","Kannamadakala",78.185255,15.706607,0,0,0.01,2.61,0,0.36,0,0,0
416,1321019,"KURNOOL","YEMMIGANUR","Kotekal",77.391337,15.687185,0,0.03,0.65,0.0099999999999999,0.1,3.78,0,0,0
417,812001,"PRAKASAM","PODILI","Egalapadu",79.595794,15.717919,0.08,0.43,0.02,0.45,0,0.0600000000000001,0.02,0,0
418,840017,"PRAKASAM","CHINAGANJAM","ChinthagumPalle",80.221264,15.734637,0.17,1,2.97,0.850000000000001,0,0.00999999999999979,0.11,0.00999999999999979,0
419,1323017,"KURNOOL","ADONI","Doddanakeri",77.281173,15.690385,0,0,2.97,0.00999999999999979,0.0600000000000001,1.21,0,0,0
420,1320007,"KURNOOL","GONEGANDLA","Vemugodu",77.684431,15.69949,0,0,0.14,0.3,0,3.36,0,0,0
421,816019,"PRAKASAM","ADDANKI","DhenuvaKonda",79.943068,15.713189,0.65,0.67,0.5,0.26,0.17,0.11,0,0,0
422,812002,"PRAKASAM","PODILI","KesavabhotlaPalem",79.609947,15.713718,0.08,0.43,0.02,0.45,0,0.0600000000000001,0.02,0,0
423,1319005,"KURNOOL","KODUMUR","Amadaguntla",77.858915,15.702789,0,0,1.25,0.03,0.0600000000000001,0.22,0,0,0
424,815009,"PRAKASAM","THALLUR","Sarvamitta",79.796656,15.725692,0.3,0.74,1.31,0.23,0.0600000000000001,0.16,0.0800000000000001,0.0100000000000002,0
425,1318013,"KURNOOL","KALLUR","ChinnaTekur",77.996431,15.697776,0,0,0.07,0.45,0.07,0.04,0,0,0
426,1313009,"KURNOOL","VELGODE","Pangidigudem1",78.68257,15.721112,0.02,0.33,2.19,0.21,0,0.15,0,0,0
427,813028,"PRAKASAM","DARSI","Samanthapudi",79.714266,15.706472,0.19,0.13,0.28,0.79,0.01,0.28,0.03,0,0
428,1319006,"KURNOOL","KODUMUR","Anugonda",77.894674,15.691496,0,0,1.25,0.03,0.0600000000000001,0.22,0,0,0
429,1316012,"KURNOOL","MIDTHUR","Talamudipi",78.363831,15.69388,0,0.06,0.4,0.46,0,0.53,0,0,0
430,845015,"PRAKASAM","NAGULUPPALAPADU","Edumudi",80.183217,15.72378,0.17,1,2.97,0.850000000000001,0,0.00999999999999979,0.11,0.00999999999999979,0
431,827010,"PRAKASAM","KORISAPADU","Rachapudi",80.14747,15.718294,0.51,0.54,1.58,0.0600000000000001,0,0.32,0.0800000000000001,0,0.12
432,1320014,"KURNOOL","GONEGANDLA","Ganjihalli",77.534197,15.686726,0,0,0.24,0.13,0.13,2.53,0,0,0
433,1318015,"KURNOOL","KALLUR","Bellavaram",77.944483,15.696238,0,0,1.25,0.03,0.0600000000000001,0.22,0,0,0
434,805030,"PRAKASAM","DONAKONDA","WestKambhampadu",79.53785,15.722612,0.03,0.2,0.00999999999999998,0.66,0,0.15,0,0,0
435,1313002,"KURNOOL","VELGODE","Velpanur",78.497024,15.693157,0,0.13,0.53,1.1,0.03,0.0600000000000001,0,0,0
436,809007,"PRAKASAM","MARKAPUR","Rayavaram1",79.315522,15.710927,0,0.31,0.06,0.24,0.0700000000000001,0.66,0.02,0,0
437,1316013,"KURNOOL","MIDTHUR","Jalakanur",78.314903,15.696628,0,0,0.02,1.21,0,0.53,0,0,0
438,827007,"PRAKASAM","KORISAPADU","DyvalaRavuru",80.060969,15.708799,0.51,0.54,1.58,0.0600000000000001,0,0.32,0.0800000000000001,0,0.12
439,827003,"PRAKASAM","KORISAPADU","Somavarappadu",80.03593,15.722375,0.18,0.68,0.56,0.16,0,0.16,0,0,0.01
440,810005,"PRAKASAM","TARLAPADU","Ganugapenta",79.353529,15.702583,0,0.21,0.02,0.72,0.0900000000000001,1.16,0.02,0.02,0
441,809013,"PRAKASAM","MARKAPUR","SivaramPuram",79.235102,15.721218,0,0.09,0.34,0.08,0.0599999999999999,0.12,0.01,0.01,0
442,810007,"PRAKASAM","TARLAPADU","KandallaPalle",79.387143,15.715023,0,0.21,0.02,0.72,0.0900000000000001,1.16,0.02,0.02,0
443,812003,"PRAKASAM","PODILI","Pamulapadu2",79.623509,15.700745,0.08,0.43,0.02,0.45,0,0.0600000000000001,0.02,0,0
444,846006,"PRAKASAM","CHINAGANJAM","Chinaganjam1",80.23204,15.695422,0.17,1,2.97,0.850000000000001,0,0.00999999999999979,0.11,0.00999999999999979,0
445,1319003,"KURNOOL","KODUMUR","Kodumur1",77.790791,15.686164,0,0,3.37,0.14,0.0100000000000002,1.24,0,0,0
446,1323001,"KURNOOL","ADONI","Hanavalu",77.149088,15.678004,0,0,4.02,0,0.0300000000000002,0,0,0,0
447,890910,"PRAKASAM","MARKAPUR","Forest8",79.178304,15.707902,0,0.09,0.34,0.08,0.0599999999999999,0.12,0.01,0.01,0
448,805029,"PRAKASAM","DONAKONDA","TellaPadu",79.517588,15.719288,0.03,0.2,0.00999999999999998,0.66,0,0.15,0,0,0
449,811006,"PRAKASAM","KONAKANAMITLA","Veligandla1",79.569137,15.706574,0.08,0.43,0.02,0.45,0,0.0600000000000001,0.02,0,0
450,1317011,"KURNOOL","ORVAKAL","Orvakal1",78.167512,15.686324,0,0,0.01,2.61,0,0.36,0,0,0
451,1322018,"KURNOOL","PEDDAKADUBUR","Tarapuram",77.313956,15.688372,0,0,2.97,0.00999999999999979,0.0600000000000001,1.21,0,0,0
452,815008,"PRAKASAM","THALLUR","BellamkondavariPalem",79.808811,15.71098,0.3,0.74,1.31,0.23,0.0600000000000001,0.16,0.0800000000000001,0.0100000000000002,0
453,808010,"PRAKASAM","ARDHAVEEDU","BolluPalle",78.921467,15.703873,0.15,0.16,1.5,0.11,0.16,0.93,0.0300000000000002,0,0
454,815014,"PRAKASAM","THALLUR","NagambhotlaPalem",79.822587,15.682161,0.3,0.74,1.31,0.23,0.0600000000000001,0.16,0.0800000000000001,0.0100000000000002,0
455,809019,"PRAKASAM","MARKAPUR","Badekhanpeta",79.193837,15.713187,0,0.09,0.34,0.08,0.0599999999999999,0.12,0.01,0.01,0
456,809020,"PRAKASAM","MARKAPUR","ThippayaPalem",79.164054,15.692319,0,0.09,0.34,0.08,0.0599999999999999,0.12,0.01,0.01,0
457,808003,"PRAKASAM","ARDHAVEEDU","Magutur",79.076353,15.70457,0,0.42,0.8,0.76,0.0299999999999998,0.24,0,0.02,0
458,1323021,"KURNOOL","ADONI","Pesalabanda",77.299679,15.673151,0,0,2.97,0.00999999999999979,0.0600000000000001,1.21,0,0,0
459,1320011,"KURNOOL","GONEGANDLA","Errabadu",77.654414,15.673194,0,0,0.14,0.3,0,3.36,0,0,0
460,1322017,"KURNOOL","PEDDAKADUBUR","Rangapuram1",77.334837,15.687069,0,0,2.97,0.00999999999999979,0.0600000000000001,1.21,0,0,0
461,1320012,"KURNOOL","GONEGANDLA","Neruduppala",77.612927,15.674115,0,0,0.18,0.12,0.04,4.41,0,0,0
462,1319008,"KURNOOL","KODUMUR","Yerradoddi",77.859694,15.677909,0,0,1.25,0.03,0.0600000000000001,0.22,0,0,0
463,811010,"PRAKASAM","KONAKANAMITLA","Ambapuram1",79.447471,15.705402,0,0.21,0.02,0.72,0.0900000000000001,1.16,0.02,0.02,0
464,813021,"PRAKASAM","DARSI","RajamPalle",79.6668,15.712236,0.19,0.13,0.28,0.79,0.01,0.28,0.03,0,0
465,1323010,"KURNOOL","ADONI","G.Hosalli",77.195235,15.682139,0,0,3.47,0.00999999999999979,0.0100000000000002,0.0299999999999998,0,0,0
466,815010,"PRAKASAM","THALLUR","Lakkavaram",79.78503,15.701108,0.3,0.74,1.31,0.23,0.0600000000000001,0.16,0.0800000000000001,0.0100000000000002,0
467,809012,"PRAKASAM","MARKAPUR","YellaPuram",79.245532,15.711349,0,0.09,0.34,0.08,0.0599999999999999,0.12,0.01,0.01,0
468,811011,"PRAKASAM","KONAKANAMITLA","RegumaniPalle",79.416099,15.699093,0,0.21,0.02,0.72,0.0900000000000001,1.16,0.02,0.02,0
469,816009,"PRAKASAM","MARKAPUR","NarasimhaPuram1",79.25711,15.703682,0,0.31,0.06,0.24,0.0700000000000001,0.66,0.02,0,0
470,815016,"PRAKASAM","THALLUR","Sivarampuram",79.867414,15.693259,0.65,0.67,0.5,0.26,0.17,0.11,0,0,0
471,809008,"PRAKASAM","MARKAPUR","Goguladinne",79.281956,15.699386,0,0.31,0.06,0.24,0.0700000000000001,0.66,0.02,0,0
472,815015,"PRAKASAM","THALLUR","Somavrappadu",79.843885,15.706877,0.3,0.74,1.31,0.23,0.0600000000000001,0.16,0.0800000000000001,0.0100000000000002,0
473,811005,"PRAKASAM","KONAKANAMITLA","Munagapadu",79.537701,15.69137,0.03,0.2,0.00999999999999998,0.66,0,0.15,0,0,0
474,845014,"PRAKASAM","NAGULUPPALAPADU","Mattigunta",80.174275,15.702316,0.17,1,2.97,0.850000000000001,0,0.00999999999999979,0.11,0.00999999999999979,0
475,1321020,"KURNOOL","YEMMIGANUR","Devibetta",77.416254,15.672843,0,0.03,0.65,0.0099999999999999,0.1,3.78,0,0,0
476,813030,"PRAKASAM","DARSI","Jamukuladinne",79.691988,15.706693,0.19,0.13,0.28,0.79,0.01,0.28,0.03,0,0
477,1332005,"KURNOOL","GADIVEMULA","BilakalaGudur",78.446211,15.68911,0,0.06,0.4,0.46,0,0.53,0,0,0
478,1313010,"KURNOOL","VELGODE","Abbirajukunta",78.656321,15.700181,0.02,0.33,2.19,0.21,0,0.15,0,0,0
479,1317006,"KURNOOL","ORVAKAL","Sakunala",78.243734,15.675713,0,0,0.01,2.61,0,0.36,0,0,0
480,808009,"PRAKASAM","ARDHAVEEDU","Ardhaveedu1",78.961164,15.674667,0,0.35,0.91,0.85,0.36,0.33,0.04,0.0100000000000002,0
481,1317013,"KURNOOL","ORVAKAL","Loddipalle",78.085028,15.681727,0,0.37,0.01,1.07,0.05,0.2,0,0,0
482,1313007,"KURNOOL","VELGODE","Boyarevula",78.560733,15.688076,0,0.04,0.49,0.44,0.02,0.0700000000000001,0,0,0
483,828002,"PRAKASAM","MADDIPADU","Gadiyapudi",79.970386,15.692754,0.18,0.68,0.56,0.16,0,0.16,0,0,0.01
484,1318017,"KURNOOL","KALLUR","Remadur",77.913564,15.677367,0,0,1.25,0.03,0.0600000000000001,0.22,0,0,0
485,1323029,"KURNOOL","ADONI","Isvi",77.237055,15.652683,0,0,3.47,0.00999999999999979,0.0100000000000002,0.0299999999999998,0,0,0
486,810001,"PRAKASAM","TARLAPADU","GorugunthalaPadu",79.219956,15.688996,0,0.09,0.34,0.08,0.0599999999999999,0.12,0.01,0.01,0
487,811004,"PRAKASAM","KONAKANAMITLA","BasavaPuram1",79.509359,15.69515,0.03,0.2,0.00999999999999998,0.66,0,0.15,0,0,0
488,809011,"PRAKASAM","MARKAPUR","Krishnapuram2",79.244194,15.703103,0,0.09,0.34,0.08,0.0599999999999999,0.12,0.01,0.01,0
489,1333017,"KURNOOL","ADONI","Forest9",77.2729,15.657421,0,0,2.97,0.00999999999999979,0.0600000000000001,1.21,0,0,0
490,1317014,"KURNOOL","ORVAKAL","Bodduvanipalle",78.028847,15.672598,0,0,0.07,0.45,0.07,0.04,0,0,0
491,1320008,"KURNOOL","GONEGANDLA","Thippanur",77.698735,15.669821,0,0,0.14,0.3,0,3.36,0,0,0
492,811003,"PRAKASAM","KONAKANAMITLA","Mummayapalem",79.49535,15.70212,0.03,0.2,0.00999999999999998,0.66,0,0.15,0,0,0
493,1332001,"KURNOOL","GADIVEMULA","Gani1",78.296521,15.65912,0,0,0.02,1.21,0,0.53,0,0,0
494,811016,"PRAKASAM","KONAKANAMITLA","BodaPadu",79.480022,15.701707,0.03,0.2,0.00999999999999998,0.66,0,0.15,0,0,0
495,1320009,"KURNOOL","GONEGANDLA","Lingamdinne",77.736147,15.67452,0,0,0.14,0.3,0,3.36,0,0,0
496,1332003,"KURNOOL","GADIVEMULA","Gadivemula1",78.406995,15.675224,0,0.06,0.4,0.46,0,0.53,0,0,0
497,811012,"PRAKASAM","KONAKANAMITLA","GurralaMadugu",79.399758,15.685152,0,0.21,0.02,0.72,0.0900000000000001,1.16,0.02,0.02,0
498,1323009,"KURNOOL","ADONI","Kadithota",77.219965,15.670375,0,0,3.47,0.00999999999999979,0.0100000000000002,0.0299999999999998,0,0,0
499,813031,"PRAKASAM","DARSI","AnnaVaram",79.657544,15.695894,0.19,0.13,0.28,0.79,0.01,0.28,0.03,0,0
500,828001,"PRAKASAM","MADDIPADU","Garlapadu",79.952269,15.695403,0.18,0.68,0.56,0.16,0,0.16,0,0,0.01
501,845001,"PRAKASAM","NAGULUPPALAPADU","Kothakota2",80.042189,15.688301,0.18,0.68,0.56,0.16,0,0.16,0,0,0.01
502,809021,"PRAKASAM","MARKAPUR","MalyavanthuniPadu",79.193315,15.686121,0,0.09,0.34,0.08,0.0599999999999999,0.12,0.01,0.01,0
503,1323020,"KURNOOL","ADONI","Sulthanapuram",77.299519,15.674961,0,0,2.97,0.00999999999999979,0.0600000000000001,1.21,0,0,0
504,1317005,"KURNOOL","ORVAKAL","Thippayapalle",78.214051,15.665477,0,0,0.01,2.61,0,0.36,0,0,0
505,1323022,"KURNOOL","ADONI","Kapati",77.336861,15.664361,0,0,2.97,0.00999999999999979,0.0600000000000001,1.21,0,0,0
506,1318018,"KURNOOL","KALLUR","Nayakallu",77.937411,15.6619,0,0,1.25,0.03,0.0600000000000001,0.22,0,0,0
507,813003,"PRAKASAM","DARSI","Thummedalapadu",79.687295,15.697024,0.19,0.13,0.28,0.79,0.01,0.28,0.03,0,0
508,1318014,"KURNOOL","KALLUR","ChetlaMallapuram",77.970963,15.670249,0,0,0.07,0.45,0.07,0.04,0,0,0
509,808011,"PRAKASAM","ARDHAVEEDU","PapineniPalle",78.92235,15.670212,0.15,0.16,1.5,0.11,0.16,0.93,0.0300000000000002,0,0
510,815007,"PRAKASAM","THALLUR","Ramabhadrapuram1",79.838284,15.702761,0.3,0.74,1.31,0.23,0.0600000000000001,0.16,0.0800000000000001,0.0100000000000002,0
511,1332002,"KURNOOL","GADIVEMULA","Manchalakatta",78.340512,15.682429,0,0,0.02,1.21,0,0.53,0,0,0
512,1323008,"KURNOOL","ADONI","Madire1",77.19892,15.639427,0,0.04,3.17,0.0100000000000002,0.22,0.02,0,0,0
513,810008,"PRAKASAM","TARLAPADU","Ragasamudram",79.383167,15.680131,0,0.21,0.02,0.72,0.0900000000000001,1.16,0.02,0.02,0
514,1317012,"KURNOOL","ORVAKAL","Meedivemula",78.104674,15.663877,0,0.37,0.01,1.07,0.05,0.2,0,0,0
515,811008,"PRAKASAM","KONAKANAMITLA","ChintaGunta",79.489971,15.676355,0.03,0.2,0.00999999999999998,0.66,0,0.15,0,0,0
516,829001,"PRAKASAM","CHIMAKURTHI","Ilapavuluru",79.905548,15.681747,0.65,0.67,0.5,0.26,0.17,0.11,0,0,0
517,813029,"PRAKASAM","DARSI","AkkamambaPuram",79.683757,15.687737,0.19,0.13,0.28,0.79,0.01,0.28,0.03,0,0
518,810002,"PRAKASAM","TARLAPADU","Seetanagulavaram",79.2442,15.684911,0,0.09,0.34,0.08,0.0599999999999999,0.12,0.01,0.01,0
519,828003,"PRAKASAM","MADDIPADU","Annangi",79.995573,15.679823,0.18,0.68,0.56,0.16,0,0.16,0,0,0.01
520,1318021,"KURNOOL","KALLUR","Yaparlapadu",78.003108,15.638788,0,0.01,0.21,0.46,0.0299999999999999,0.0700000000000001,0,0,0
521,810004,"PRAKASAM","TARLAPADU","Kethagudipi",79.305628,15.679533,0,0.31,0.06,0.24,0.0700000000000001,0.66,0.02,0,0
522,808005,"PRAKASAM","ARDHAVEEDU","Kakarla",79.109407,15.638513,0,0.15,0.75,0.27,0.03,0.14,0,0.01,0
523,845012,"PRAKASAM","NAGULUPPALAPADU","Kandlagunta",80.138966,15.69016,0.51,0.54,1.58,0.0600000000000001,0,0.32,0.0800000000000001,0,0.12
524,811009,"PRAKASAM","KONAKANAMITLA","BuradaPalem",79.473303,15.68834,0.03,0.2,0.00999999999999998,0.66,0,0.15,0,0,0
525,890932,"PRAKASAM","ARDHAVEEDU","Forest10",79.121891,15.672338,0,0.42,0.8,0.76,0.0299999999999998,0.24,0,0.02,0
526,812004,"PRAKASAM","PODILI","Kunchepalle",79.636753,15.678695,0.08,0.43,0.02,0.45,0,0.0600000000000001,0.02,0,0
527,1319010,"KURNOOL","KODUMUR","Mudumalagurthy",77.778093,15.65609,0,0,3.37,0.14,0.0100000000000002,1.24,0,0,0
528,1323002,"KURNOOL","ADONI","Santhekudlur",77.151606,15.641116,0,0.04,3.17,0.0100000000000002,0.22,0.02,0,0,0
529,1327002,"KURNOOL","DEVANAKONDA","Ternekal",77.539553,15.634728,0,0,0.24,0.09,0.04,1.48,0,0,0
530,811017,"PRAKASAM","KONAKANAMITLA","AswarayuniPalem",79.46023,15.678304,0.03,0.2,0.00999999999999998,0.66,0,0.15,0,0,0
531,810003,"PRAKASAM","TARLAPADU","Surepalle",79.264829,15.676971,0,0.31,0.06,0.24,0.0700000000000001,0.66,0.02,0,0
532,811015,"PRAKASAM","KONAKANAMITLA","VaddiMadugu",79.438666,15.680651,0,0.21,0.02,0.72,0.0900000000000001,1.16,0.02,0.02,0
533,1323023,"KURNOOL","ADONI","Arekal",77.370887,15.653665,0,0.03,0.65,0.0099999999999999,0.1,3.78,0,0,0
534,815012,"PRAKASAM","THALLUR","BoddikuraPadu",79.763287,15.660578,0.3,0.74,1.31,0.23,0.0600000000000001,0.16,0.0800000000000001,0.0100000000000002,0
535,1327003,"KURNOOL","DEVANAKONDA","Palakurthy",77.586714,15.638065,0,0,0.35,0.7,0,2.93,0,0,0
536,1313008,"KURNOOL","VELGODE","Mothukur",78.551479,15.667345,0,0.04,0.49,0.44,0.02,0.0700000000000001,0,0,0
537,1319009,"KURNOOL","KODUMUR","Gorantla1",77.823511,15.622973,0,0,0.42,0.72,0,0.82,0,0,0
538,1390907,"KURNOOL","ADONI","Adoni1",77.284719,15.636999,0,0.05,2.11,0.13,0.34,0.48,0,0,0
539,1317010,"KURNOOL","ORVAKAL","Guttapadu",78.162153,15.661755,0,0,0.01,2.61,0,0.36,0,0,0
540,808004,"PRAKASAM","ARDHAVEEDU","PottiBasavaiPalle",79.086982,15.674864,0,0.42,0.8,0.76,0.0299999999999998,0.24,0,0.02,0
541,890911,"PRAKASAM","MARKAPUR","Forest11",79.14882,15.666537,0,0.42,0.8,0.76,0.0299999999999998,0.24,0,0.02,0
542,812009,"PRAKASAM","PODILI","Sudanagunta",79.583446,15.672747,0.08,0.43,0.02,0.45,0,0.0600000000000001,0.02,0,0
543,845002,"PRAKASAM","NAGULUPPALAPADU","Nidamanur",80.073049,15.661414,0.51,0.54,1.58,0.0600000000000001,0,0.32,0.0800000000000001,0,0.12
544,845013,"PRAKASAM","NAGULUPPALAPADU","Uppugundur",80.162919,15.670812,0.17,1,2.97,0.850000000000001,0,0.00999999999999979,0.11,0.00999999999999979,0
545,846007,"PRAKASAM","CHINAGANJAM","Pedaganjam",80.215006,15.649487,0.01,0.88,8.8,0.790000000000001,0,0.00999999999999979,0.0299999999999994,0.00999999999999979,0
546,1326002,"KURNOOL","ASPARI","Mulugundam",77.436449,15.635345,0,0.06,0.34,0.14,0.0599999999999999,1.27,0,0,0
547,1320015,"KURNOOL","GONEGANDLA","Byluppala",77.498208,15.645299,0,0,0.24,0.09,0.04,1.48,0,0,0
548,1323003,"KURNOOL","ADONI","PeddaHarivanam",77.078723,15.617226,0,0.01,3.75,0,0.04,0,0,0,0
549,815011,"PRAKASAM","THALLUR","Sankaranarayanapuram",79.73079,15.679376,0.19,0.13,0.28,0.79,0.01,0.28,0.03,0,0
550,1328001,"KURNOOL","KRISHNAGIRI","Mannegunta",77.80878,15.627702,0,0,0.42,0.72,0,0.82,0,0,0
551,827009,"PRAKASAM","KORISAPADU","PrasangulaPadu",80.113429,15.679372,0.51,0.54,1.58,0.0600000000000001,0,0.32,0.0800000000000001,0,0.12
552,810009,"PRAKASAM","TARLAPADU","Kaluzuwwalapadu",79.366894,15.663966,0,0.21,0.02,0.72,0.0900000000000001,1.16,0.02,0.02,0
553,1332008,"KURNOOL","GADIVEMULA","Chennakkapalle",78.339237,15.639552,0,0.01,0.13,0.09,0.03,0.43,0,0,0
554,1320010,"KURNOOL","GONEGANDLA","Kurnur",77.733348,15.637798,0,0,0.28,0.94,0.01,2.12,0,0,0
555,813033,"PRAKASAM","DARSI","Kothapalle1",79.683383,15.67452,0.19,0.13,0.28,0.79,0.01,0.28,0.03,0,0
556,1331888,"KURNOOL","BANDIATMAKUR","Forest12",78.686544,15.587046,1.41,0.0800000000000001,0.96,1.87,0.00999999999999979,0.42,0,0,0
557,1332007,"KURNOOL","GADIVEMULA","Bujanur",78.442003,15.663074,0,0.06,0.4,0.46,0,0.53,0,0,0
558,1303001,"KURNOOL","BANDIATMAKUR","Narayanapuram1",78.586762,15.652886,0,0.04,0.49,0.44,0.02,0.0700000000000001,0,0,0
559,808008,"PRAKASAM","ARDHAVEEDU","Donakonda1",78.999822,15.666432,0,0.35,0.91,0.85,0.36,0.33,0.04,0.0100000000000002,0
560,810010,"PRAKASAM","TARLAPADU","JangamreddiPalle",79.3438,15.672959,0,0.31,0.06,0.24,0.0700000000000001,0.66,0.02,0,0
561,810012,"PRAKASAM","TARLAPADU","ThummalaCheruvu",79.282346,15.652028,0,0.31,0.06,0.24,0.0700000000000001,0.66,0.02,0,0
562,1304001,"KURNOOL","DEVANAKONDA","Machapuram",77.655729,15.637762,0,0,0.28,0.94,0.01,2.12,0,0,0
563,1332006,"KURNOOL","GADIVEMULA","Pesaravayi",78.475478,15.653302,0,0.13,0.53,1.1,0.03,0.0600000000000001,0,0,0
564,845011,"PRAKASAM","NAGULUPPALAPADU","NaguluppalaPadu",80.128349,15.649486,1.27,1.88,7.38,0.0299999999999994,0,0.0199999999999996,0.0400000000000009,0,0.0800000000000001
565,1323027,"KURNOOL","ADONI","S.Kondapuram",77.322845,15.645186,0,0.05,2.11,0.13,0.34,0.48,0,0,0
566,811007,"PRAKASAM","KONAKANAMITLA","NagarajuGunta",79.517929,15.66809,0.03,0.2,0.00999999999999998,0.66,0,0.15,0,0,0
567,828011,"PRAKASAM","MADDIPADU","Doddavaram",79.953015,15.665105,0.18,0.68,0.56,0.16,0,0.16,0,0,0.01
568,828004,"PRAKASAM","MADDIPADU","GundlaPalle",80.016821,15.666425,0.18,0.68,0.56,0.16,0,0.16,0,0,0.01
569,808007,"PRAKASAM","ARDHAVEEDU","AyyavariPalle",79.040831,15.663094,0,0.35,0.91,0.85,0.36,0.33,0.04,0.0100000000000002,0
570,812005,"PRAKASAM","PODILI","DasallaPalle",79.660032,15.670048,0.19,0.13,0.28,0.79,0.01,0.28,0.03,0,0
571,808006,"PRAKASAM","ARDHAVEEDU","PedaKandukur",79.036217,15.650755,0,0.35,0.91,0.85,0.36,0.33,0.04,0.0100000000000002,0
572,1323024,"KURNOOL","ADONI","Chinnapendekal",77.3939,15.628879,0,0.06,0.34,0.14,0.0599999999999999,1.27,0,0,0
573,1319007,"KURNOOL","KODUMUR","Laddagiri",77.887875,15.631677,0,0,0.07,0.76,0.04,0.15,0,0,0
574,810013,"PRAKASAM","TARLAPADU","Tellapadu",79.24312,15.659622,0,0.09,0.34,0.08,0.0599999999999999,0.12,0.01,0.01,0
575,809022,"PRAKASAM","MARKAPUR","BhupathiPalle",79.17365,15.656583,0,0.09,0.34,0.08,0.0599999999999999,0.12,0.01,0.01,0
576,813032,"PRAKASAM","DARSI","LakshmiNarayanaPuram1",79.67984,15.675325,0.19,0.13,0.28,0.79,0.01,0.28,0.03,0,0
577,1320016,"KURNOOL","GONEGANDLA","BandameediAgraharam",77.471441,15.63258,0,0,0.24,0.09,0.04,1.48,0,0,0
578,813034,"PRAKASAM","DARSI","Korlamadugu",79.704509,15.659016,0.19,0.13,0.28,0.79,0.01,0.28,0.03,0,0
579,1317015,"KURNOOL","ORVAKAL","Uyyalawada1",78.068901,15.635471,0,0,0.48,0.21,0.05,0.43,0,0,0
580,810025,"PRAKASAM","TARLAPADU","KondaReddiPalle",79.34117,15.647175,0,0.1,0.03,0.13,0.12,0.68,0,0.01,0
581,1323026,"KURNOOL","ADONI","Bychigeri",77.351476,15.637528,0,0.06,0.34,0.14,0.0599999999999999,1.27,0,0,0
582,1333001,"KURNOOL","BANDIATMAKUR","Bhojanam",78.511193,15.648273,0,0,0.15,0.52,0.0399999999999999,0.0600000000000001,0,0,0
583,829002,"PRAKASAM","CHIMAKURTHI","RangasaiPuram",79.921856,15.670299,0.65,0.67,0.5,0.26,0.17,0.11,0,0,0
584,812008,"PRAKASAM","PODILI","Zuvvaleru",79.615586,15.653079,0.08,0.43,0.02,0.45,0,0.0600000000000001,0.02,0,0
585,828010,"PRAKASAM","MADDIPADU","Venkateswarapuram",79.976141,15.671379,0.18,0.68,0.56,0.16,0,0.16,0,0,0.01
586,811018,"PRAKASAM","KONAKANAMITLA","VedurrallaPadu",79.461973,15.656867,0.03,0.2,0.00999999999999998,0.66,0,0.15,0,0,0
587,1395903,"KURNOOL","GADIVEMULA","Undutla",78.368228,15.631633,0.08,0.06,0.47,0.45,0.05,0.45,0,0,0
588,811023,"PRAKASAM","KONAKANAMITLA","ThuvvaPadu",79.438938,15.640757,0,0.1,0,1.37,0.01,0.36,0.01,0,0
589,833014,"PRAKASAM","NAGULUPPALAPADU","Pothavaram1",80.102184,15.661178,0.51,0.54,1.58,0.0600000000000001,0,0.32,0.0800000000000001,0,0.12
590,812006,"PRAKASAM","PODILI","Ramulaveedu",79.677585,15.650458,0.19,0.13,0.28,0.79,0.01,0.28,0.03,0,0
591,1318020,"KURNOOL","KALLUR","Ulindakonda",77.971052,15.631002,0,0.01,0.21,0.46,0.0299999999999999,0.0700000000000001,0,0,0
592,1323030,"KURNOOL","ADONI","Parvathapuram",77.245756,15.627135,0,0.04,3.17,0.0100000000000002,0.22,0.02,0,0,0
593,811014,"PRAKASAM","KONAKANAMITLA","MarriPalem",79.415197,15.654073,0,0.21,0.02,0.72,0.0900000000000001,1.16,0.02,0.02,0
594,812011,"PRAKASAM","PODILI","KondayaPalem",79.541901,15.662044,0.03,0.2,0.00999999999999998,0.66,0,0.15,0,0,0
595,810014,"PRAKASAM","TARLAPADU","Tarlupadu",79.210979,15.652896,0,0.09,0.34,0.08,0.0599999999999999,0.12,0.01,0.01,0
596,890912,"PRAKASAM","CHIMAKURTHI","Forest13",79.835063,15.637201,0.45,0.72,0.13,1.28,0.0800000000000001,0.18,0.13,0,0
597,1318019,"KURNOOL","KALLUR","Konganapadu",77.927171,15.633241,0,0,0.07,0.76,0.04,0.15,0,0,0
598,1328002,"KURNOOL","KRISHNAGIRI","Pothugal",77.770827,15.608989,0,0,0.42,0.72,0,0.82,0,0,0
599,828005,"PRAKASAM","MADDIPADU","RachavariPalem",80.048009,15.649397,0.14,0.36,3.34,0.04,0.00999999999999979,0.49,0,0,0.13
600,811013,"PRAKASAM","KONAKANAMITLA","Garladinne2",79.388456,15.647387,0,0.1,0,1.37,0.01,0.36,0.01,0,0
601,1317008,"KURNOOL","ORVAKAL","Husainapuram",78.180273,15.640602,0,0,0.43,0.08,0.08,0.8,0,0,0
602,828006,"PRAKASAM","MADDIPADU","KeerthiPadu",80.029962,15.650877,0.18,0.68,0.56,0.16,0,0.16,0,0,0.01
603,1327004,"KURNOOL","DEVANAKONDA","Kappatralla",77.647759,15.600926,0,0,0.35,0.7,0,2.93,0,0,0
604,1329888,"KURNOOL","PANYAM","Forest14",78.288875,15.564101,0,0.01,0.13,0.09,0.03,0.43,0,0,0
605,811019,"PRAKASAM","KONAKANAMITLA","Konakanamitla1",79.488295,15.639064,0.02,0.07,0.01,2.2,0,0,0.02,0,0
606,810023,"PRAKASAM","TARLAPADU","MangalaKunta",79.312268,15.623658,0,0.1,0.03,0.13,0.12,0.68,0,0.01,0
607,810011,"PRAKASAM","TARLAPADU","ObayaPalle",79.333454,15.651978,0,0.31,0.06,0.24,0.0700000000000001,0.66,0.02,0,0
608,829003,"PRAKASAM","CHIMAKURTHI","PallaMalli",79.89363,15.650666,0.65,0.67,0.5,0.26,0.17,0.11,0,0,0
609,1317007,"KURNOOL","ORVAKAL","Brahmanapalle",78.231144,15.641746,0,0,0.43,0.08,0.08,0.8,0,0,0
610,829004,"PRAKASAM","CHIMAKURTHI","Nekunambadu",79.924415,15.650242,0.65,0.67,0.5,0.26,0.17,0.11,0,0,0
611,1317009,"KURNOOL","ORVAKAL","N.Konthalapadu",78.143502,15.634447,0,0,0.48,0.21,0.05,0.43,0,0,0
612,812010,"PRAKASAM","PODILI","Thummagunta",79.581958,15.650872,0.08,0.43,0.02,0.45,0,0.0600000000000001,0.02,0,0
613,812007,"PRAKASAM","MADDIPADU","Mallavaram",79.979789,15.647939,0.14,0.36,3.34,0.04,0.00999999999999979,0.49,0,0,0.13
614,810024,"PRAKASAM","TARLAPADU","JagannadhaPuram1",79.302769,15.648393,0,0.1,0.03,0.13,0.12,0.68,0,0.01,0
615,1333004,"KURNOOL","BANDIATMAKUR","PeddaDevalapuram",78.547863,15.643361,0,0,0.15,0.52,0.0399999999999999,0.0600000000000001,0,0,0
616,828009,"PRAKASAM","PODILI","Mallavaram1",79.639406,15.648514,0.05,0.1,0.07,1.17,0,0.03,0.01,0,0
617,1323004,"KURNOOL","ADONI","Yadavalle",77.124559,15.619431,0,0.01,3.75,0,0.04,0,0,0,0
618,1317016,"KURNOOL","ORVAKAL","Uppalapadu",78.116474,15.629042,0,0,0.48,0.21,0.05,0.43,0,0,0
619,1390908,"KURNOOL","ADONI","AdoniM",77.276163,15.622664,0,0.05,2.11,0.13,0.34,0.48,0,0,0
620,812012,"PRAKASAM","PODILI","Salakanuthala",79.548066,15.650099,0.03,0.2,0.00999999999999998,0.66,0,0.15,0,0,0
621,1329004,"KURNOOL","VELDURTHIKURNOOL","Pullagummi",78.025452,15.624224,0,0.01,0.21,0.46,0.0299999999999999,0.0700000000000001,0,0,0
622,1332009,"KURNOOL","GADIVEMULA","Chindukuru",78.446686,15.634959,0.08,0.06,0.47,0.45,0.05,0.45,0,0,0
623,1323025,"KURNOOL","ADONI","Sambagallu",77.367045,15.618534,0,0.06,0.34,0.14,0.0599999999999999,1.27,0,0,0
624,1329005,"KURNOOL","VELDURTHIKURNOOL","Kalugotla2",78.046704,15.591137,0,0.01,0.21,0.46,0.0299999999999999,0.0700000000000001,0,0,0
625,810021,"PRAKASAM","TARLAPADU","ChennaReddiPalle",79.251651,15.633772,0,0.1,0.03,0.13,0.12,0.68,0,0.01,0
626,1323039,"KURNOOL","ADONI","MandagiriRural",77.291088,15.596511,0,0.05,2.11,0.13,0.34,0.48,0,0,0
627,811020,"PRAKASAM","KONAKANAMITLA","VeerabhadraPuram",79.521076,15.651206,0.03,0.2,0.00999999999999998,0.66,0,0.15,0,0,0
628,1390909,"KURNOOL","ADONI","Vengalapuram",77.294789,15.625192,0,0.05,2.11,0.13,0.34,0.48,0,0,0
629,813035,"PRAKASAM","DARSI","ThripuraSundariPuram",79.727679,15.644756,0.2,0.93,0.04,0.97,0.11,0.12,0.0299999999999998,0,0
630,809023,"PRAKASAM","MARKAPUR","BondalaPadu",79.184234,15.629394,0,0.21,0.34,0.14,0.01,0.33,0,0.01,0
631,834001,"PRAKASAM","CUMBUM","Jangamguntla",79.146232,15.640815,0,0.15,0.75,0.27,0.03,0.14,0,0.01,0
632,1323041,"KURNOOL","ADONI","Nettekal",77.342597,15.617775,0,0.05,2.11,0.13,0.34,0.48,0,0,0
633,828008,"PRAKASAM","MADDIPADU","Kolachanakota",79.997761,15.641418,0.14,0.36,3.34,0.04,0.00999999999999979,0.49,0,0,0.13
634,1323005,"KURNOOL","ADONI","Baladur",77.130768,15.604216,0,0.01,3.75,0,0.04,0,0,0,0
635,845010,"PRAKASAM","NAGULUPPALAPADU","Machavaram1",80.159812,15.639522,0.01,0.88,8.8,0.790000000000001,0,0.00999999999999979,0.0299999999999994,0.00999999999999979,0
636,1333003,"KURNOOL","BANDIATMAKUR","Santhajutur",78.538342,15.620136,0,0,0.15,0.52,0.0399999999999999,0.0600000000000001,0,0,0
637,1326004,"KURNOOL","ASPARI","Banavanur",77.492095,15.605714,0,0,0.24,0.09,0.04,1.48,0,0,0
638,812023,"PRAKASAM","PODILI","Nimmavaram",79.658963,15.632272,0.2,0.93,0.04,0.97,0.11,0.12,0.0299999999999998,0,0
639,813036,"PRAKASAM","DARSI","KrishnaPuram",79.704992,15.64121,0.2,0.93,0.04,0.97,0.11,0.12,0.0299999999999998,0,0
640,1317017,"KURNOOL","ORVAKAL","Kalva",78.182675,15.612411,0,0,0.43,0.08,0.08,0.8,0,0,0
641,829005,"PRAKASAM","CHIMAKURTHI","Chandrapadu",79.941231,15.631893,0.52,0.24,0.24,0.3,0.38,0.33,0,0,0
642,1327006,"KURNOOL","DEVANAKONDA","P.Kotakonda",77.700921,15.596373,0,0,0.28,0.94,0.01,2.12,0,0,0
643,845004,"PRAKASAM","NAGULUPPALAPADU","Chadalawada",80.098681,15.620277,1.27,1.88,7.38,0.0299999999999994,0,0.0199999999999996,0.0400000000000009,0,0.0800000000000001
644,1328006,"KURNOOL","KRISHNAGIRI","ShotriumYerragudi",77.837834,15.608119,0,0,0.42,0.72,0,0.82,0,0,0
645,812013,"PRAKASAM","PODILI","MugaChinthala",79.524555,15.635283,0.02,0.07,0.01,2.2,0,0,0.02,0,0
646,1333002,"KURNOOL","BANDIATMAKUR","Paramatur",78.502081,15.626749,0,0,0.15,0.52,0.0399999999999999,0.0600000000000001,0,0,0
647,1323037,"KURNOOL","ADONI","Kallubavi",77.249163,15.597078,0,0.04,3.17,0.0100000000000002,0.22,0.02,0,0,0
648,810026,"PRAKASAM","TARLAPADU","LakshmakkaPalle",79.351063,15.624904,0,0.1,0,1.37,0.01,0.36,0.01,0,0
649,813037,"PRAKASAM","DARSI","Pedauyyalawada",79.718795,15.630094,0.2,0.93,0.04,0.97,0.11,0.12,0.0299999999999998,0,0
650,812014,"PRAKASAM","PODILI","Dondleru",79.557006,15.632123,0.05,0.1,0.07,1.17,0,0.03,0.01,0,0
651,1333006,"KURNOOL","BANDIATMAKUR","GaliChennaiahPalem",78.575535,15.611746,0.05,0,0.1,0.12,0.01,0.06,0,0,0
652,810015,"PRAKASAM","TARLAPADU","KarumaniPalle",79.221783,15.632902,0,0.21,0.34,0.14,0.01,0.33,0,0.01,0
653,1323006,"KURNOOL","ADONI","ChinnaGonehal",77.159295,15.603107,0,0.04,3.17,0.0100000000000002,0.22,0.02,0,0,0
654,828007,"PRAKASAM","MADDIPADU","VellamPalle",80.005197,15.629958,0.14,0.36,3.34,0.04,0.00999999999999979,0.49,0,0,0.13
655,829009,"PRAKASAM","CHIMAKURTHI","Devarapalem",79.78682,15.628441,0.45,0.72,0.13,1.28,0.0800000000000001,0.18,0.13,0,0
656,828013,"PRAKASAM","MADDIPADU","Maddipadu1",80.019968,15.616989,0.14,0.36,3.34,0.04,0.00999999999999979,0.49,0,0,0.13
657,1328007,"KURNOOL","KRISHNAGIRI","Tallagokulapadu",77.877551,15.60369,0,0,0.07,0.76,0.04,0.15,0,0,0
658,890913,"PRAKASAM","TARLAPADU","Forest15",79.358682,15.596263,0,0.1,0,1.37,0.01,0.36,0.01,0,0
659,812021,"PRAKASAM","PODILI","AkkaCheruvu",79.582991,15.633335,0.05,0.1,0.07,1.17,0,0.03,0.01,0,0
660,1323040,"KURNOOL","ADONI","Dibbanakal1",77.319418,15.604843,0,0.05,2.11,0.13,0.34,0.48,0,0,0
661,1323031,"KURNOOL","ADONI","V.Kondapuram",77.214994,15.611255,0,0.04,3.17,0.0100000000000002,0.22,0.02,0,0,0
662,1323007,"KURNOOL","ADONI","ChinnaHarivanam",77.181611,15.596081,0,0.04,3.17,0.0100000000000002,0.22,0.02,0,0,0
663,1326001,"KURNOOL","ASPARI","DudadudiKotakonda",77.406355,15.590073,0,0.06,0.34,0.14,0.0599999999999999,1.27,0,0,0
664,1326003,"KURNOOL","ASPARI","Karumanchi",77.454595,15.591989,0,0,0.24,0.09,0.04,1.48,0,0,0
665,1332011,"KURNOOL","GADIVEMULA","Gadigarevula",78.437048,15.60994,0.08,0.06,0.47,0.45,0.05,0.45,0,0,0
666,1332010,"KURNOOL","GADIVEMULA","Karimaddala",78.488285,15.606443,0,0,0.15,0.52,0.0399999999999999,0.0600000000000001,0,0,0
667,829012,"PRAKASAM","CHIMAKURTHI","Chimakurthi1",79.859441,15.598666,0.52,0.24,0.24,0.3,0.38,0.33,0,0,0
668,828012,"PRAKASAM","MADDIPADU","Nelatur",79.982959,15.616883,0.14,0.36,3.34,0.04,0.00999999999999979,0.49,0,0,0.13
669,1323015,"KURNOOL","ADONI","Ballekallu",77.208005,15.595078,0,0.04,3.17,0.0100000000000002,0.22,0.02,0,0,0
670,812022,"PRAKASAM","PODILI","Podili1",79.624546,15.603272,0.05,0.1,0.07,1.17,0,0.03,0.01,0,0
671,829007,"PRAKASAM","CHIMAKURTHI","Bandlamudi",79.895828,15.620181,0.52,0.24,0.24,0.3,0.38,0.33,0,0,0
672,829008,"PRAKASAM","CHIMAKURTHI","Padamatinaidupalem",79.88097,15.624355,0.52,0.24,0.24,0.3,0.38,0.33,0,0,0
673,810016,"PRAKASAM","TARLAPADU","MeerjaPeta",79.222451,15.617147,0,0.21,0.34,0.14,0.01,0.33,0,0.01,0
674,808012,"PRAKASAM","ARDHAVEEDU","Yerraguntla1",78.920548,15.623556,0.07,0.44,0.44,0.05,0.05,0.21,0.01,0,0
675,812026,"PRAKASAM","PODILI","AnnaVaram1",79.696462,15.625751,0.2,0.93,0.04,0.97,0.11,0.12,0.0299999999999998,0,0
676,815013,"PRAKASAM","THALLUR","SurayaPalem",79.743388,15.63284,0.2,0.93,0.04,0.97,0.11,0.12,0.0299999999999998,0,0
677,1327010,"KURNOOL","DEVANAKONDA","Karivemula",77.58443,15.587385,0,0,0.35,0.7,0,2.93,0,0,0
678,1323042,"KURNOOL","ADONI","Salakalakonda",77.349206,15.598366,0,0.05,2.11,0.13,0.34,0.48,0,0,0
679,1327001,"KURNOOL","DEVANAKONDA","Potlapadu",77.524717,15.594291,0,0,0.24,0.09,0.04,1.48,0,0,0
680,834002,"PRAKASAM","CUMBUM","LanjaKota",79.16294,15.612251,0,0.21,0.34,0.14,0.01,0.33,0,0.01,0
681,1329002,"KURNOOL","VELDURTHIKURNOOL","Mallepalle",77.949835,15.598859,0,0,0.07,0.76,0.04,0.15,0,0,0
682,812024,"PRAKASAM","PODILI","Teegadurthipadu",79.669742,15.614064,0.2,0.93,0.04,0.97,0.11,0.12,0.0299999999999998,0,0
683,828015,"PRAKASAM","MADDIPADU","Nandipadu",80.050897,15.627809,1.27,1.88,7.38,0.0299999999999994,0,0.0199999999999996,0.0400000000000009,0,0.0800000000000001
684,813038,"PRAKASAM","DARSI","ChinaUyyalawada",79.738243,15.614249,0.2,0.93,0.04,0.97,0.11,0.12,0.0299999999999998,0,0
685,1324001,"KURNOOL","HOLAGUNDA","Gajjehalli",77.04791,15.572457,0,0,1.41,0.01,0.49,0.0700000000000001,0,0,0
686,1324004,"KURNOOL","HOLAGUNDA","Ingaladahal",77.138453,15.592077,0,0.01,3.75,0,0.04,0,0,0,0
687,1317018,"KURNOOL","ORVAKAL","Palakolanu",78.132833,15.600283,0,0,0.48,0.21,0.05,0.43,0,0,0
688,1329006,"KURNOOL","VELDURTHIKURNOOL","Bukkapuram1",78.089613,15.592238,0,0,0.48,0.21,0.05,0.43,0,0,0
689,1303006,"KURNOOL","ADONI","Basapuram",77.363533,15.586311,0,0.06,0.34,0.14,0.0599999999999999,1.27,0,0,0
690,811021,"PRAKASAM","KONAKANAMITLA","Siddavaram",79.510291,15.605221,0.02,0.07,0.01,2.2,0,0,0.02,0,0
691,812020,"PRAKASAM","PODILI","MadalavariPalem",79.582469,15.619126,0.05,0.1,0.07,1.17,0,0.03,0.01,0,0
692,808013,"PRAKASAM","ARDHAVEEDU","Bogolu",79.043839,15.598956,0,0.08,0.39,0.32,0.0299999999999999,0.1,0.01,0.0099999999999999,0
693,828016,"PRAKASAM","MADDIPADU","Inamanamellur",80.062177,15.603617,1.27,1.88,7.38,0.0299999999999994,0,0.0199999999999996,0.0400000000000009,0,0.0800000000000001
694,845009,"PRAKASAM","NAGULUPPALAPADU","Raparla",80.15534,15.616979,0.01,0.88,8.8,0.790000000000001,0,0.00999999999999979,0.0299999999999994,0.00999999999999979,0
695,1331001,"KURNOOL","PANYAM","Pinnapuram1",78.246027,15.583414,0,0,0.43,0.08,0.08,0.8,0,0,0
696,829006,"PRAKASAM","CHIMAKURTHI","TorragudiPadu",79.909505,15.615106,0.52,0.24,0.24,0.3,0.38,0.33,0,0,0
697,811024,"PRAKASAM","KONAKANAMITLA","VinjavarthiPadu",79.391693,15.603472,0,0.1,0,1.37,0.01,0.36,0.01,0,0
698,1330888,"KURNOOL","VELDURTHIKURNOOL","Forest16",78.018866,15.596747,0,0.01,0.21,0.46,0.0299999999999999,0.0700000000000001,0,0,0
699,811022,"PRAKASAM","KONAKANAMITLA","Katragunta",79.443377,15.59892,0,0.1,0,1.37,0.01,0.36,0.01,0,0
700,1323045,"KURNOOL","ADONI","Gonabavi",77.322517,15.590929,0,0.05,2.11,0.13,0.34,0.48,0,0,0
701,1324003,"KURNOOL","HOLAGUNDA","MaddiLingadahalli",77.136067,15.581981,0,0.01,3.75,0,0.04,0,0,0,0
702,812015,"PRAKASAM","PODILI","ObulakkaPalle",79.549835,15.606783,0.02,0.07,0.01,2.2,0,0,0.02,0,0
703,1328003,"KURNOOL","KRISHNAGIRI","Agaveli",77.735663,15.575154,0,0,0.28,0.94,0.01,2.12,0,0,0
704,843009,"PRAKASAM","SANTHANUTHLAPADU","PidathalagudiPadu",79.961574,15.604834,0.14,0.36,3.34,0.04,0.00999999999999979,0.49,0,0,0.13
705,890914,"PRAKASAM","CHIMAKURTHI","Forest17",79.79683,15.607505,0.45,0.72,0.13,1.28,0.0800000000000001,0.18,0.13,0,0
706,828014,"PRAKASAM","MADDIPADU","Seetharampuram1",80.032235,15.612627,0.14,0.36,3.34,0.04,0.00999999999999979,0.49,0,0,0.13
707,812019,"PRAKASAM","PODILI","RamayanaKandrika",79.573462,15.610712,0.05,0.1,0.07,1.17,0,0.03,0.01,0,0
708,829014,"PRAKASAM","CHIMAKURTHI","Yerragudipadu",79.923791,15.600433,0.52,0.24,0.24,0.3,0.38,0.33,0,0,0
709,810020,"PRAKASAM","TARLAPADU","NagendlaMudupu",79.263659,15.60117,0,0.1,0.03,0.13,0.12,0.68,0,0.01,0
710,829010,"PRAKASAM","CHIMAKURTHI","Nippatlapadu",79.769354,15.604195,0.45,0.72,0.13,1.28,0.0800000000000001,0.18,0.13,0,0
711,812025,"PRAKASAM","PODILI","AmudalaPalle",79.681689,15.609439,0.2,0.93,0.04,0.97,0.11,0.12,0.0299999999999998,0,0
712,1317019,"KURNOOL","ORVAKAL","Somyajulapalle",78.164388,15.582149,0,0,0.43,0.08,0.08,0.8,0,0,0
713,1328008,"KURNOOL","KRISHNAGIRI","Thogarchedu",77.871578,15.569334,0,0,0.07,0.76,0.04,0.15,0,0,0
714,845018,"PRAKASAM","NAGULUPPALAPADU","Kanuparthi",80.203301,15.589064,0.01,0.88,8.8,0.790000000000001,0,0.00999999999999979,0.0299999999999994,0.00999999999999979,0
715,1328005,"KURNOOL","KRISHNAGIRI","Krishnagiri1",77.827019,15.563867,0,0,0.42,0.72,0,0.82,0,0,0
716,812027,"PRAKASAM","PODILI","ChintagumPalle",79.700977,15.605097,0.2,0.93,0.04,0.97,0.11,0.12,0.0299999999999998,0,0
717,810017,"PRAKASAM","TARLAPADU","GollaPalle",79.219125,15.591435,0,0.21,0.34,0.14,0.01,0.33,0,0.01,0
718,1327007,"KURNOOL","DEVANAKONDA","S.Thimmapuram",77.67738,15.585503,0,0,0.28,0.94,0.01,2.12,0,0,0
719,834004,"PRAKASAM","CUMBUM","KandulaPuram",79.128937,15.59964,0,0.15,0.75,0.27,0.03,0.14,0,0.01,0
720,1323044,"KURNOOL","ADONI","Huvvanur",77.339716,15.581153,0,0.05,2.11,0.13,0.34,0.48,0,0,0
721,810022,"PRAKASAM","TARLAPADU","TadivariPalle",79.299165,15.590526,0,0.1,0.03,0.13,0.12,0.68,0,0.01,0
722,1324005,"KURNOOL","HOLAGUNDA","PeddaGonehal",77.140342,15.570914,0,0.01,3.75,0,0.04,0,0,0,0
723,1323046,"KURNOOL","ADONI","Virupapuram",77.322797,15.567374,0,0.05,2.11,0.13,0.34,0.48,0,0,0
724,1323033,"KURNOOL","ADONI","NaganathanaHalli",77.212842,15.557854,0,0.04,3.17,0.0100000000000002,0.22,0.02,0,0,0
725,845007,"PRAKASAM","NAGULUPPALAPADU","CheervanuppalaPadu",80.110342,15.589741,1.27,1.88,7.38,0.0299999999999994,0,0.0199999999999996,0.0400000000000009,0,0.0800000000000001
726,845008,"PRAKASAM","NAGULUPPALAPADU","AmmanaBrolu",80.145729,15.584226,1.27,1.88,7.38,0.0299999999999994,0,0.0199999999999996,0.0400000000000009,0,0.0800000000000001
727,843008,"PRAKASAM","SANTHANUTHLAPADU","KonaganiVariPalem",79.938835,15.601369,0.52,0.24,0.24,0.3,0.38,0.33,0,0,0
728,834009,"PRAKASAM","CUMBUM","Cumbum1",79.096137,15.589245,0,0.15,0.75,0.27,0.03,0.14,0,0.01,0
729,1324002,"KURNOOL","HOLAGUNDA","Vandavagali",77.085373,15.551347,0,0.01,3.75,0,0.04,0,0,0,0
730,1333008,"KURNOOL","BANDIATMAKUR","BandiAtmakur1",78.547874,15.581988,0,0,0.15,0.52,0.0399999999999999,0.0600000000000001,0,0,0
731,1329001,"KURNOOL","VELDURTHIKURNOOL","Narlapuram",77.940896,15.579048,0,0,0.07,0.76,0.04,0.15,0,0,0
732,1333007,"KURNOOL","BANDIATMAKUR","Ramapuram2",78.552951,15.595512,0.05,0,0.1,0.12,0.01,0.06,0,0,0
733,834003,"PRAKASAM","CUMBUM","NadimPalle",79.144571,15.599468,0,0.15,0.75,0.27,0.03,0.14,0,0.01,0
734,1332012,"KURNOOL","GADIVEMULA","Thirupadu",78.445548,15.59102,0.08,0.06,0.47,0.45,0.05,0.45,0,0,0
735,1329003,"KURNOOL","VELDURTHIKURNOOL","Ramallakota",78.001539,15.574382,0,0.01,0.21,0.46,0.0299999999999999,0.0700000000000001,0,0,0
736,835001,"PRAKASAM","RACHERLA","Akaveedu1",78.93316,15.569391,0.07,0.44,0.44,0.05,0.05,0.21,0.01,0,0
737,1332014,"KURNOOL","GADIVEMULA","Durvesi",78.41597,15.577848,0.08,0.06,0.47,0.45,0.05,0.45,0,0,0
738,1326005,"KURNOOL","ASPARI","Khyruppala",77.470662,15.546477,0,0,0.96,0.92,0,0.03,0,0,0
739,812028,"PRAKASAM","PODILI","LakshmiPuram",79.719215,15.60165,0.2,0.93,0.04,0.97,0.11,0.12,0.0299999999999998,0,0
740,1327011,"KURNOOL","DEVANAKONDA","Kunkanur",77.540898,15.562136,0,0,0.24,0.09,0.04,1.48,0,0,0
741,812018,"PRAKASAM","PODILI","NandiPalem",79.574433,15.597791,0.05,0.1,0.07,1.17,0,0.03,0.01,0,0
742,829017,"PRAKASAM","CHIMAKURTHI","RajupalemLaxmipuram",79.824708,15.582227,0.45,0.72,0.13,1.28,0.0800000000000001,0.18,0.13,0,0
743,1326011,"KURNOOL","ASPARI","Tangaradona",77.371166,15.557027,0,0.06,0.34,0.14,0.0599999999999999,1.27,0,0,0
744,829011,"PRAKASAM","CHIMAKURTHI","Budavada1",79.792904,15.585438,0.45,0.72,0.13,1.28,0.0800000000000001,0.18,0.13,0,0
745,834005,"PRAKASAM","CUMBUM","AurangaBad",79.161467,15.585474,0,0.21,0.34,0.14,0.01,0.33,0,0.01,0
746,1326008,"KURNOOL","ASPARI","Yatakallu",77.42869,15.551684,0,0.06,0.34,0.14,0.0599999999999999,1.27,0,0,0
747,829013,"PRAKASAM","CHIMAKURTHI","KandurivariAgraharam",79.8849,15.593117,0.52,0.24,0.24,0.3,0.38,0.33,0,0,0
748,1333009,"KURNOOL","BANDIATMAKUR","Yerraguntla2",78.485159,15.573094,0,0,0.15,0.52,0.0399999999999999,0.0600000000000001,0,0,0
749,1327008,"KURNOOL","DEVANAKONDA","Chellelichelimala",77.687124,15.538337,0,0,1.32,0.45,0,0.0900000000000001,0,0,0
750,1323036,"KURNOOL","ADONI","Dhanapuram",77.262018,15.560487,0,0.05,2.11,0.13,0.34,0.48,0,0,0
751,833013,"PRAKASAM","BESTAVARIPETA","RetlaPalle",79.190811,15.584887,0,0.21,0.34,0.14,0.01,0.33,0,0.01,0
752,829015,"PRAKASAM","CHIMAKURTHI","Manchikalapadu",79.90329,15.585436,0.52,0.24,0.24,0.3,0.38,0.33,0,0,0
753,1329010,"KURNOOL","VELDURTHIKURNOOL","Veldurthi1",77.938517,15.545455,0,0,0.45,1.58,0,0.0100000000000002,0,0,0
754,843002,"PRAKASAM","SANTHANUTHLAPADU","Rudravaram2",79.988747,15.594483,0.14,0.36,3.34,0.04,0.00999999999999979,0.49,0,0,0.13
755,834013,"PRAKASAM","CUMBUM","LingapuramKhandrika",79.016921,15.586378,0,0.08,0.39,0.32,0.0299999999999999,0.1,0.01,0.0099999999999999,0
756,810019,"PRAKASAM","TARLAPADU","PathePuram",79.248514,15.587607,0,0.21,0.34,0.14,0.01,0.33,0,0.01,0
757,812029,"PRAKASAM","PODILI","Thalamalla",79.717664,15.582886,0.2,0.93,0.04,0.97,0.11,0.12,0.0299999999999998,0,0
758,828018,"PRAKASAM","MADDIPADU","PedaKothaPalle",80.007597,15.574385,0.14,0.36,3.34,0.04,0.00999999999999979,0.49,0,0,0.13
759,812016,"PRAKASAM","PODILI","Kambhalapadu",79.568264,15.579507,0.05,0.1,0.07,1.17,0,0.03,0.01,0,0
760,845005,"PRAKASAM","NAGULUPPALAPADU","MaddiralaPadu",80.089778,15.591373,1.27,1.88,7.38,0.0299999999999994,0,0.0199999999999996,0.0400000000000009,0,0.0800000000000001
761,1324006,"KURNOOL","HOLAGUNDA","Hebbatam",77.150177,15.545951,0,0.08,0.39,0.0800000000000001,0.46,0,0,0,0
762,830002,"PRAKASAM","MARRIPUDI","KellamPalle1",79.684879,15.56347,0.2,0.93,0.04,0.97,0.11,0.12,0.0299999999999998,0,0
763,810018,"PRAKASAM","TARLAPADU","RolagamPadu",79.212467,15.574051,0,0.21,0.34,0.14,0.01,0.33,0,0.01,0
764,834012,"PRAKASAM","CUMBUM","LingaPuram",79.045667,15.565988,0,0.08,0.39,0.32,0.0299999999999999,0.1,0.01,0.0099999999999999,0
765,828017,"PRAKASAM","MADDIPADU","Doddavarappadu",80.034025,15.585719,0.14,0.36,3.34,0.04,0.00999999999999979,0.49,0,0,0.13
766,830001,"PRAKASAM","MARRIPUDI","GosukondaAgraharam",79.68639,15.587009,0.2,0.93,0.04,0.97,0.11,0.12,0.0299999999999998,0,0
767,1327009,"KURNOOL","DEVANAKONDA","Jilledubudakala",77.627697,15.55021,0,0,0.35,0.7,0,2.93,0,0,0
768,1332013,"KURNOOL","GADIVEMULA","Koratamaddi",78.446182,15.573144,0.08,0.06,0.47,0.45,0.05,0.45,0,0,0
769,1330003,"KURNOOL","BETHAMCHERLA","Emboy",78.112537,15.551081,0,0,0.48,0.21,0.05,0.43,0,0,0
770,811028,"PRAKASAM","KONAKANAMITLA","BudamkayalaPadu",79.41487,15.577516,0,0.1,0,1.37,0.01,0.36,0.01,0,0
771,812030,"PRAKASAM","PODILI","UppalaPadu",79.744775,15.575326,0.2,0.93,0.04,0.97,0.11,0.12,0.0299999999999998,0,0
772,1326010,"KURNOOL","ASPARI","Thurvagal",77.400502,15.552046,0,0.06,0.34,0.14,0.0599999999999999,1.27,0,0,0
773,803010,"PRAKASAM","MARRIPUDI","RajuPalem1",79.61651,15.568364,0.05,0.1,0.07,1.17,0,0.03,0.01,0,0
774,811027,"PRAKASAM","KONAKANAMITLA","Nagampalle",79.395814,15.573309,0,0.1,0,1.37,0.01,0.36,0.01,0,0
775,1331002,"KURNOOL","PANYAM","Gorukallu",78.393998,15.56524,0.08,0.06,0.47,0.45,0.05,0.45,0,0,0
776,811025,"PRAKASAM","KONAKANAMITLA","Salanuthala",79.374967,15.564226,0,0.1,0,1.37,0.01,0.36,0.01,0,0
777,843013,"PRAKASAM","SANTHANUTHLAPADU","MattiPadu",79.95609,15.576467,0.14,0.36,3.34,0.04,0.00999999999999979,0.49,0,0,0.13
778,811032,"PRAKASAM","KONAKANAMITLA","Chinarikatla1",79.535127,15.560011,0.02,0.07,0.01,2.2,0,0,0.02,0,0
779,834008,"PRAKASAM","CUMBUM","Kagitalagudem",79.120461,15.576279,0,0.15,0.75,0.27,0.03,0.14,0,0.01,0
780,1326013,"KURNOOL","ASPARI","Nagarur",77.303842,15.53716,0,0.03,0.44,0.37,0.39,0,0,0,0
781,811031,"PRAKASAM","KONAKANAMITLA","Batchalakurapadu",79.487824,15.570121,0.02,0.07,0.01,2.2,0,0,0.02,0,0
782,845006,"PRAKASAM","NAGULUPPALAPADU","ChekuraPadu",80.087297,15.575362,1.27,1.88,7.38,0.0299999999999994,0,0.0199999999999996,0.0400000000000009,0,0.0800000000000001
783,834006,"PRAKASAM","CUMBUM","Ravipadu1",79.151352,15.56944,0,0.21,0.34,0.14,0.01,0.33,0,0.01,0
784,1328004,"KURNOOL","KRISHNAGIRI","Yerukalacheruvu",77.767492,15.547034,0,0,0.54,1.24,0,0.2,0,0,0
785,1333010,"KURNOOL","BANDIATMAKUR","Kakanur",78.502885,15.563026,0,0,0.15,0.52,0.0399999999999999,0.0600000000000001,0,0,0
786,1324010,"KURNOOL","HOLAGUNDA","Holagunda1",77.044611,15.496995,0,0,2.08,0,0.84,0.17,0.02,0,0
787,833007,"PRAKASAM","BESTAVARIPETA","ChinthalaPalem",79.106669,15.569663,0,0.15,0.75,0.27,0.03,0.14,0,0.01,0
788,1317020,"KURNOOL","ORVAKAL","Komarolu1",78.155698,15.550881,0,0,0.43,0.08,0.08,0.8,0,0,0
789,828020,"PRAKASAM","MADDIPADU","Edugundlapadu",80.053547,15.572861,1.27,1.88,7.38,0.0299999999999994,0,0.0199999999999996,0.0400000000000009,0,0.0800000000000001
790,1329009,"KURNOOL","VELDURTHIKURNOOL","Sho.Boyanapalle",77.984544,15.556643,0,0.01,0.21,0.46,0.0299999999999999,0.0700000000000001,0,0,0
791,1334004,"KURNOOL","NANDYAL","Pulimaddi",78.465083,15.549137,0,0,0.5,0.27,0,0.18,0,0,0
792,1333011,"KURNOOL","BANDIATMAKUR","Parnapalle",78.539395,15.557177,0,0,0.15,0.52,0.0399999999999999,0.0600000000000001,0,0,0
793,890915,"PRAKASAM","HANUMANTHUNIPADU","Forest18",79.246471,15.50749,0,0.07,0.09,0.18,0,0,0,0,0
794,1333012,"KURNOOL","BANDIATMAKUR","Ernapadu1",78.580393,15.552937,0.05,0,0.1,0.12,0.01,0.06,0,0,0
795,833012,"PRAKASAM","BESTAVARIPETA","PedaObeneniPalle",79.194293,15.564941,0,0.21,0.34,0.14,0.01,0.33,0,0.01,0
796,812031,"PRAKASAM","PODILI","Yeluru",79.767327,15.562176,0.45,0.72,0.13,1.28,0.0800000000000001,0.18,0.13,0,0
797,833006,"PRAKASAM","BESTAVARIPETA","Somavarapeta",79.097351,15.565852,0,0.15,0.75,0.27,0.03,0.14,0,0.01,0
798,834011,"PRAKASAM","CUMBUM","ChinaCumbum",79.078752,15.55524,0,0.15,0.75,0.27,0.03,0.14,0,0.01,0
799,1329011,"KURNOOL","VELDURTHIKURNOOL","Cherukulapadu",77.889748,15.537084,0,0,0.45,1.58,0,0.0100000000000002,0,0,0
800,829018,"PRAKASAM","CHIMAKURTHI","Mylavaram1",79.803178,15.567571,0.45,0.72,0.13,1.28,0.0800000000000001,0.18,0.13,0,0
801,834016,"PRAKASAM","CUMBUM","Thurimella",78.989407,15.527436,0,0.01,0.08,1.01,0,0.02,0,0,0
802,1323034,"KURNOOL","ADONI","Naranapuram",77.248584,15.538607,0,0.08,0.39,0.0800000000000001,0.46,0,0,0,0
803,830003,"PRAKASAM","MARRIPUDI","GundlaSamudram",79.648326,15.558853,0.05,0.1,0.07,1.17,0,0.03,0.01,0,0
804,1327013,"KURNOOL","DEVANAKONDA","Velamakuru",77.532868,15.51535,0,0,0.96,0.92,0,0.03,0,0,0
805,811029,"PRAKASAM","KONAKANAMITLA","Gotlagattu1",79.423767,15.541413,0.02,0,0,1.35,0,0.00999999999999979,0.0600000000000001,0.02,0
806,1329007,"KURNOOL","VELDURTHIKURNOOL","Sarparajapuram",78.03327,15.548354,0,0,0.8,0.55,0.0699999999999998,0.17,0,0,0
807,811030,"PRAKASAM","KONAKANAMITLA","GarimanaPenta",79.456019,15.553236,0.02,0.07,0.01,2.2,0,0,0.02,0,0
808,844002,"PRAKASAM","ONGOLE","Karavadi",80.10905,15.544852,0.72,2.07,4.17,0,0.00999999999999979,0.00999999999999979,0.11,0.00999999999999979,0
809,1331006,"KURNOOL","PANYAM","Panyam1",78.330549,15.51756,0,0,0.62,0.3,0.09,0.57,0,0,0
810,828019,"PRAKASAM","MADDIPADU","Lingamgunta",80.027709,15.559685,0.14,0.36,3.34,0.04,0.00999999999999979,0.49,0,0,0.13
811,1327012,"KURNOOL","DEVANAKONDA","Devanakonda1",77.567282,15.531236,0,0,2.44,0.94,0,0.0500000000000003,0,0,0
812,1326012,"KURNOOL","ASPARI","Benigeri",77.345528,15.531254,0,0.03,0.44,0.37,0.39,0,0,0,0
813,829016,"PRAKASAM","CHIMAKURTHI","Gonugunta",79.859021,15.544982,0.47,0.14,0.03,0,0.27,0.12,0,0,0.16
814,1323035,"KURNOOL","ADONI","Chagi",77.266254,15.533144,0,0.03,0.44,0.37,0.39,0,0,0,0
815,834014,"PRAKASAM","CUMBUM","Yerrabalem2",79.017056,15.55544,0,0.08,0.39,0.32,0.0299999999999999,0.1,0.01,0.0099999999999999,0
816,1330001,"KURNOOL","BETHAMCHERLA","Pendakal",78.057649,15.521182,0,0,2.1,0.33,0.0299999999999998,0.64,0,0,0
817,834007,"PRAKASAM","CUMBUM","HazaratGudem",79.132331,15.561794,0,0.15,0.75,0.27,0.03,0.14,0,0.01,0
818,833011,"PRAKASAM","BESTAVARIPETA","ChinaObeneniPalle",79.190267,15.551628,0,0.21,0.34,0.14,0.01,0.33,0,0.01,0
819,843003,"PRAKASAM","SANTHANUTHLAPADU","GuruvareddyPalem",79.895395,15.559049,0.52,0.24,0.24,0.3,0.38,0.33,0,0,0
820,836016,"PRAKASAM","GIDDALURU","Bogada",78.8344,15.551507,0.44,0.84,0.92,2.61,0,0.81,0,0,0
821,1331003,"KURNOOL","PANYAM","Kondajutur",78.403815,15.544113,0,0,0.71,1.91,0.0800000000000001,0.27,0,0,0
822,1331007,"KURNOOL","PANYAM","Thammarajupalle",78.222158,15.543897,0,0,1.24,0.0600000000000001,0.0600000000000001,0.88,0,0,0
823,832006,"PRAKASAM","HANUMANTHUNIPADU","MohammadaPuram",79.349118,15.54675,0.01,0,0.05,0,0,0.01,0.01,0,0
824,844001,"PRAKASAM","ONGOLE","Throvagunta1",80.066022,15.553096,1.27,1.88,7.38,0.0299999999999994,0,0.0199999999999996,0.0400000000000009,0,0.0800000000000001
825,1334003,"KURNOOL","NANDYAL","Munagala1",78.443016,15.54682,0,0,0.71,1.91,0.0800000000000001,0.27,0,0,0
826,844003,"PRAKASAM","ONGOLE","Ulichi1",80.161522,15.543398,0.02,0.35,7.23,0.130000000000001,0,0.0199999999999996,0.0199999999999996,0.0100000000000007,0
827,834010,"PRAKASAM","CUMBUM","PorumamillaPalle",79.09277,15.556062,0,0.15,0.75,0.27,0.03,0.14,0,0.01,0
828,1325002,"KURNOOL","ALUR","Kammarachedu1",77.229978,15.518232,0,0.08,0.39,0.0800000000000001,0.46,0,0,0,0
829,843005,"PRAKASAM","SANTHANUTHLAPADU","Endluru",79.970878,15.555084,0.14,0.36,3.34,0.04,0.00999999999999979,0.49,0,0,0.13
830,829019,"PRAKASAM","CHIMAKURTHI","Pulikonda",79.816543,15.551347,0.45,0.72,0.13,1.28,0.0800000000000001,0.18,0.13,0,0
831,1328010,"KURNOOL","KRISHNAGIRI","Kambalapadu1",77.799789,15.516395,0,0,0.54,1.24,0,0.2,0,0,0
832,812017,"PRAKASAM","PODILI","JafalaPuram",79.586493,15.552481,0.05,0.1,0.07,1.17,0,0.03,0.01,0,0
833,833009,"PRAKASAM","BESTAVARIPETA","Salakalaveedu",79.148694,15.535098,0,0.05,0.12,1.91,0,0.0499999999999998,0,0,0
834,843006,"PRAKASAM","SANTHANUTHLAPADU","PernamettaRural",79.912321,15.549518,0.47,0.14,0.03,0,0.27,0.12,0,0,0.16
835,1328009,"KURNOOL","KRISHNAGIRI","Amakathadu",77.862321,15.506435,0,0,0.45,1.58,0,0.0100000000000002,0,0,0
836,1328011,"KURNOOL","KRISHNAGIRI","ChunchuYerragudi",77.733804,15.510808,0,0,1.32,0.45,0,0.0900000000000001,0,0,0
837,1334005,"KURNOOL","NANDYAL","Bheemavaram1",78.494614,15.536603,0,0,0.5,0.27,0,0.18,0,0,0
838,811026,"PRAKASAM","KONAKANAMITLA","Chinamanagundam",79.391492,15.544135,0.02,0,0,1.35,0,0.00999999999999979,0.0600000000000001,0.02,0
839,1329008,"KURNOOL","VELDURTHIKURNOOL","Narasapuram1",78.003369,15.531466,0,0,0.8,0.55,0.0699999999999998,0.17,0,0,0
840,830007,"PRAKASAM","MARRIPUDI","Kakarla1",79.742404,15.534063,0.49,0.31,0.0399999999999999,1.08,0,0.04,0.0499999999999998,0,0
841,1326009,"KURNOOL","ASPARI","Haligera",77.38767,15.52397,0,0,0.14,1.09,0.11,0,0,0,0
842,844004,"PRAKASAM","ONGOLE","DevaramPadu",80.198018,15.532817,0.02,0.35,7.23,0.130000000000001,0,0.0199999999999996,0.0199999999999996,0.0100000000000007,0
843,1334001,"KURNOOL","NANDYAL","Polur",78.428234,15.526245,0,0,0.71,1.91,0.0800000000000001,0.27,0,0,0
844,833010,"PRAKASAM","BESTAVARIPETA","DatharaKrishnapuram",79.168981,15.549378,0,0.07,0.09,0.18,0,0,0,0,0
845,830006,"PRAKASAM","MARRIPUDI","Pannuru1",79.705827,15.536822,0.49,0.31,0.0399999999999999,1.08,0,0.04,0.0499999999999998,0,0
846,890917,"PRAKASAM","BESTAVARIPETA","Forest19",79.173748,15.412244,0,0.24,1.13,0.00999999999999979,0,0,0,0,0
847,833008,"PRAKASAM","BESTAVARIPETA","Nekunambad",79.117711,15.536343,0,0.05,0.12,1.91,0,0.0499999999999998,0,0,0
848,843007,"PRAKASAM","SANTHANUTHLAPADU","Gangavaram1",79.94124,15.521811,0.47,0.14,0.03,0,0.27,0.12,0,0,0.16
849,1324007,"KURNOOL","HOLAGUNDA","Lingadahalli",77.137668,15.516394,0,0.03,1.84,0.0599999999999998,0.34,0,0.00999999999999979,0,0
850,1326006,"KURNOOL","ASPARI","Muthkur",77.488826,15.498594,0,0,0.96,0.92,0,0.03,0,0,0
851,833004,"PRAKASAM","BESTAVARIPETA","Papayapalle",79.10773,15.547941,0,0.05,0.12,1.91,0,0.0499999999999998,0,0,0
852,833005,"PRAKASAM","BESTAVARIPETA","Bestawaripeta",79.099084,15.547167,0,0.05,0.12,1.91,0,0.0499999999999998,0,0,0
853,1330002,"KURNOOL","BETHAMCHERLA","Muddavaram",78.079725,15.505512,0,0,2.1,0.33,0.0299999999999998,0.64,0,0,0
854,1390910,"KURNOOL","BETHAMCHERLA","Bugganapalli",78.177228,15.497653,0,0,1.24,0.0600000000000001,0.0600000000000001,0.88,0,0,0
855,812032,"PRAKASAM","PODILI","T.Salluru",79.785954,15.543635,0.63,0.03,0.1,0.5,0.05,0.0799999999999998,0.05,0,0
856,811033,"PRAKASAM","KONAKANAMITLA","Irasalagundam",79.490312,15.539217,0.02,0.04,0,1.62,0,0,0.05,0,0
857,1324021,"KURNOOL","ALUR","Kurukunda",77.189723,15.50776,0,0.08,0.39,0.0800000000000001,0.46,0,0,0,0
858,1327015,"KURNOOL","DEVANAKONDA","Gundlakonda1",77.639242,15.491165,0,0,2.44,0.94,0,0.0500000000000003,0,0,0
859,1326007,"KURNOOL","ASPARI","Billekallu",77.439453,15.506362,0,0,0.14,1.09,0.11,0,0,0,0
860,1331004,"KURNOOL","PANYAM","Chilakala",78.381685,15.528353,0,0,0.71,1.91,0.0800000000000001,0.27,0,0,0
861,835002,"PRAKASAM","RACHERLA","VenthurlaPadu",78.905338,15.54146,0.02,0.29,0.81,0.27,0,0.01,0,0,0
862,1324009,"KURNOOL","HOLAGUNDA","Chinnahyta",77.080241,15.503723,0,0.03,1.84,0.0599999999999998,0.34,0,0.00999999999999979,0,0
863,1326014,"KURNOOL","ASPARI","Chigeli",77.331738,15.508498,0,0.03,0.44,0.37,0.39,0,0,0,0
864,1324008,"KURNOOL","HOLAGUNDA","Yellarthy1",77.115766,15.496162,0,0.03,1.84,0.0599999999999998,0.34,0,0.00999999999999979,0,0
865,834015,"PRAKASAM","CUMBUM","AnanthaPalle",79.016282,15.536125,0,0.01,0.08,1.01,0,0.02,0,0,0
866,890918,"PRAKASAM","MARRIPUDI","Forest20",79.589411,15.501443,0.21,0.05,0.04,1.46,0,0,0.05,0,0
867,1333014,"KURNOOL","BANDIATMAKUR","AyyavariKodur",78.525738,15.5301,0,0,0.5,0.27,0,0.18,0,0,0
868,833001,"PRAKASAM","BESTAVARIPETA","JaggambotlaKrishnapuram",79.073402,15.537316,0,0.05,0.12,1.91,0,0.0499999999999998,0,0,0
869,835007,"PRAKASAM","RACHERLA","MadhavaPuram",79.03162,15.504889,0,0.01,0.08,1.01,0,0.02,0,0,0
870,835003,"PRAKASAM","RACHERLA","ChinnaganiPalle",78.929985,15.529864,0.02,0.29,0.81,0.27,0,0.01,0,0,0
871,1324888,"KURNOOL","BETHAMCHERLA","Forest21",78.123006,15.452591,0,0,2.1,0.33,0.0299999999999998,0.64,0,0,0
872,1325003,"KURNOOL","ALUR","Musanahalli",77.275677,15.515082,0,0.03,0.44,0.37,0.39,0,0,0,0
873,840007,"PRAKASAM","BESTAVARIPETA","Pothavaram2",79.189182,15.534761,0,0.07,0.09,0.18,0,0,0,0,0
874,832005,"PRAKASAM","HANUMANTHUNIPADU","VemulaPadu",79.32592,15.527035,0.01,0,0.05,0,0,0.01,0.01,0,0
875,843015,"PRAKASAM","SANTHANUTHLAPADU","PadamatiThakkellaPadu",79.999385,15.527176,1.22,0.25,2.11,0.02,0.19,0.04,0,0,0.0600000000000001
876,830005,"PRAKASAM","MARRIPUDI","Marripudi1",79.644309,15.520633,0.21,0.05,0.04,1.46,0,0,0.05,0,0
877,1395902,"KURNOOL","VELDURTHIKURNOOL","LaxminagaramForest",78.019847,15.495895,0,0,0.8,0.55,0.0699999999999998,0.17,0,0,0
878,1333013,"KURNOOL","BANDIATMAKUR","Kadamalakalva",78.583751,15.526583,0.75,0,0.11,1.19,0.0100000000000002,0.31,0,0,0
879,1328012,"KURNOOL","KRISHNAGIRI","Lakkasagaram",77.697159,15.483842,0,0,1.32,0.45,0,0.0900000000000001,0,0,0
880,811034,"PRAKASAM","KONAKANAMITLA","Pedarikatla",79.531081,15.519481,0.02,0.04,0,1.62,0,0,0.05,0,0
881,1334002,"KURNOOL","NANDYAL","Rayamalpuram",78.457434,15.524243,0,0,0.5,0.27,0,0.18,0,0,0
882,1325004,"KURNOOL","ALUR","Katriki1",77.260021,15.504756,0,0.03,0.44,0.37,0.39,0,0,0,0
883,844007,"PRAKASAM","ONGOLE","GudimellaPadu",80.073205,15.536622,0.72,2.07,4.17,0,0.00999999999999979,0.00999999999999979,0.11,0.00999999999999979,0
884,1324020,"KURNOOL","HOLAGUNDA","Neraniki",77.156581,15.479122,0,0.08,0.39,0.0800000000000001,0.46,0,0,0,0
885,844008,"PRAKASAM","ONGOLE","MukthinutalaPaduRural",80.051466,15.532143,0.72,2.07,4.17,0,0.00999999999999979,0.00999999999999979,0.11,0.00999999999999979,0
886,833003,"PRAKASAM","BESTAVARIPETA","Pusalapadu",79.093705,15.493985,0,0.05,0.12,1.91,0,0.0499999999999998,0,0,0
887,836002,"PRAKASAM","GIDDALURU","IsukagundamGudem",78.833985,15.526026,0.8,0.42,0.92,0.72,0,0.12,0,0,0
888,1326015,"KURNOOL","ASPARI","Chiramandoddi",77.373819,15.504193,0,0,0.14,1.09,0.11,0,0,0,0
